Name,Address,City,State,Zip,Style,Last update,Image count,Num bedrooms,Rent,Pets Allowed,Latitude,Longitude,Income,Num_of_Households,Metro Distance
Fifty Three-Thirty Three,5333 Connecticut Ave NW, Washington,DC,20015,,New,28,2.0,3700.0,Yes,38.960584999999995,-77.072666,1729694,7640,1150.349297292806
Brittany Apartments,5432 Connecticut Ave NW, Washington,DC,20015,,5 hrs,22,2.0,2250.0,Contact Management,38.962871,-77.074726,1729694,7640,1000.4429699566624
The Kenmore,5415 Connecticut Ave NW, Washington,DC,20015,,1 hr,Not specified,2.0,2475.0,Contact Management,38.961711,-77.073237,1729694,7640,1106.0733537970737
Livingston,5437 Connecticut Ave NW, Washington,DC,20015,,6 hrs,Not specified,1.0,1460.0,Contact Management,38.962872999999995,-77.07395,1729694,7640,1065.8025134114966
La Reine Apartments,5425 Connecticut Ave NW, Washington,DC,20015,,1 wk,Not specified,2.0,2585.0,Contact Management,38.962272999999996,-77.073698,1729694,7640,1074.507250725837
5233 Connecticut Ave NW Unit 302,5233 Connecticut Ave NW Unit 302,Washington,DC,20015,,2 wks,Not specified,,2300.0,Contact Management,38.958801,-77.07168399999998,1729694,7640,1253.8890305950165
6006 28th St NW,6006 28th St NW,Washington,DC,20015,,1 day,Not specified,,4200.0,Contact Management,38.969034,-77.05862900000002,1729694,7640,2537.131853221619
5323 42nd Pl NW,5323 42nd Pl NW,Washington,DC,20015,,1 day,Not specified,,4250.0,Contact Management,38.959846999999996,-77.081754,1729694,7640,377.84463379678954
5340 41st St NW,5340 41st St NW,Washington,DC,20015,,1 day,Not specified,,4200.0,Contact Management,38.960341,-77.080559,1729694,7640,469.9056237055349
3017 Military Rd NW,3017 Military Rd NW,Washington,DC,20015,,1 day,Not specified,,3400.0,Contact Management,38.961312,-77.06059300000003,1729694,7640,1983.376802246958
3831 Military Rd NW,3831 Military Rd NW,Washington,DC,20015,,1 day,Not specified,,4000.0,Contact Management,38.961258,-77.076299,1729694,7640,838.0416516283258
5402 Connecticut Ave NW,5402 Connecticut Ave NW,Washington,DC,20015,,1 day,Not specified,,2200.0,Contact Management,38.961248,-77.073995,1729694,7640,1036.8153540626513
3755 Northampton St NW,3755 Northampton St NW,Washington,DC,20015,,1 day,Not specified,,5400.0,Contact Management,38.966007,-77.074809,1729694,7640,1128.4892218207244
5235 Western Ave NW,5235 Western Ave NW,Washington,DC,20015,,1 day,Not specified,,6510.0,Contact Management,38.957888,-77.089036,1729694,7640,413.73437732458973
The Huntington,5225 Connecticut Ave NW, Washington,DC,20015,,2 wks,Not specified,0.0,1214.0,Contact Management,38.958375,-77.0714,1729694,7640,1286.942753087411
Cathedral Commons,3401 Idaho Ave NW, Washington,DC,20016,,New,33,3.0,10102.0,Yes,38.934939,-77.073973,3388724,14220,1323.0712512716982
Vaughan Place,3401 38th St NW, Washington,DC,20016,,New,47,2.0,4035.0,Yes,38.9363,-77.07386600000002,3388724,14220,1210.1976165195078
The Berkshire,4201 Massachusetts Ave NW, Washington,DC,20016,,7 hrs,30,2.0,3800.0,Yes,38.935859,-77.08195699999997,3388724,14220,1344.0183843103598
Avalon at Foxhall,4100 Massachusetts Ave NW, Washington,DC,20016,,1 day,25,3.0,3445.0,Yes,38.933555,-77.08183199999998,3388724,14220,1596.4179447761655
4000 Massachusetts,4000 Massachusetts Ave NW, Washington,DC,20016,,2 wks,28,3.0,3795.0,No,38.931301,-77.078745,3388724,14220,1814.6868732063617
Tenley View,4600 Wisconsin Ave NW, Washington,DC,20016,,2 wks,59,1.0,,Yes,38.949946999999995,-77.080827,3388724,14220,259.91514063421545
Alban Towers,3700 Massachusetts Ave NW, Washington,DC,20016,,1 hr,33,3.0,4215.0,Contact Management,38.928271,-77.073698,3388724,14220,1517.4224436821307
Idaho Terrace,3040 Idaho Ave NW, Washington,DC,20016,,6 hrs,34,2.0,2775.0,Contact Management,38.930155,-77.07865,3388724,14220,1837.5761066264406
The Elaine Apartments,3210 Wisconsin Ave NW, Washington,DC,20016,,5 days,30,2.0,2590.0,Contact Management,38.93237,-77.073043,3388724,14220,1307.5998951546105
Macomb Gardens Apartments,3725 Macomb St NW, Washington,DC,20016,,1 wk,30,2.0,2750.0,Contact Management,38.93375800000001,-77.073497,3388724,14220,1325.037608575165
3333 Wisconsin,3333 Wisconsin Ave NW, Washington,DC,20016,,1 hr,Not specified,2.0,7973.0,Contact Management,38.934266,-77.072089,3388724,14220,1200.059492308746
The Archer,3701 Massachusetts Ave NW, Washington,DC,20016,,6 hrs,Not specified,2.0,2976.0,Contact Management,38.929338,-77.07347,3388724,14220,1447.2429634275438
Adams View (located in Cathedral Heights),3201 Wisconsin Ave NW, Washington,DC,20016,,7 hrs,Not specified,1.0,2200.0,Contact Management,38.932727,-77.072138,3388724,14220,1223.2220959907363
Lencshire House,3140 Wisconsin Ave NW, Washington,DC,20016,,2 days,Not specified,1.0,1695.0,Contact Management,38.93170900000001,-77.073172,3388724,14220,1334.951080254392
Alto Towers,3206 Wisconsin Ave NW, Washington,DC,20016,,5 days,Not specified,2.0,2738.0,Contact Management,38.93206,-77.072911,3388724,14220,1303.7492858943338
Chancery Apartments,3130 Wisconsin Ave NW, Washington,DC,20016,,1 wk,Not specified,2.0,2173.0,Contact Management,38.931282,-77.07322099999998,3388724,14220,1351.6468521228232
3051 Idaho Ave NW Unit 324,3051 Idaho Ave NW Unit 324,Washington,DC,20016,,1 day,Not specified,,1650.0,Contact Management,38.930108000000004,-77.07766600000002,3388724,14220,1757.4186405494386
3728 Yuma St NW,3728 Yuma St NW,Washington,DC,20016,,4 days,Not specified,,4000.0,Contact Management,38.946082000000004,-77.07368199999998,3388724,14220,547.8028372945297
3200 New Mexico Ave NW Unit B,3200 New Mexico Ave NW Unit B,Washington,DC,20016,,5 days,Not specified,,1400.0,Contact Management,38.932596000000004,-77.085614,3388724,14220,1769.2815905792881
3026 Wisconsin Ave NW,3026 Wisconsin Ave NW,Washington,DC,20016,,New,Not specified,1.0,1775.0,Contact Management,38.930245,-77.073438,3388724,14220,1406.0721733625107
3601 Wisconsin Ave NW Unit 106,3601 Wisconsin Ave NW Unit 106,Washington,DC,20016,,5 days,Not specified,,1900.0,Contact Management,38.93764,-77.07364799999998,3388724,14220,1100.359555870848
4201 Cathedral Ave NW Unit 206W,4201 Cathedral Ave NW Unit 206W,Washington,DC,20016,,1 wk,Not specified,1.0,2200.0,Contact Management,38.930823,-77.082977,3388724,14220,1910.8985537133444
4101 Albemarle St NW Unit 407,4101 Albemarle St NW Unit 407,Washington,DC,20016,,1 wk,Not specified,,1850.0,Contact Management,38.948175,-77.080823,3388724,14220,112.15348889292422
3217 Wisconsin Ave NW Unit 3A,3217 Wisconsin Ave NW Unit 3A,Washington,DC,20016,,1 wk,Not specified,,2290.0,Contact Management,38.933174,-77.072161,3388724,14220,1217.2441372460107
3287 Sutton Pl NW,3287 Sutton Pl NW,Washington,DC,20016,,1 wk,Not specified,,3500.0,Contact Management,38.932541,-77.08379599999998,3388724,14220,1735.6981202361007
4725 Western Ave NW,4725 Western Ave NW,Washington,DC,20016,,1 day,Not specified,,4500.0,Contact Management,38.951624,-77.09705500000003,3388724,14220,1395.4503670708716
3863 Rodman St NW Unit B50,3863 Rodman St NW Unit B50,Washington,DC,20016,,1 day,Not specified,,2000.0,Contact Management,38.939544,-77.076814,3388724,14220,950.3077472232485
4119 Brandywine St NW,4119 Brandywine St NW,Washington,DC,20016,,1 day,Not specified,,5000.0,Contact Management,38.949894,-77.081425,3388724,14220,279.82432341042113
5112 Macarthur Blvd NW Unit 209,5112 Macarthur Blvd NW Unit 209,Washington,DC,20016,,1 day,Not specified,,1800.0,Contact Management,38.92522,-77.10218,3388724,14220,3180.8187658208926
4810 Rockwood Pky NW,4810 Rockwood Pky NW,Washington,DC,20016,,1 day,Not specified,,10500.0,Contact Management,38.933296999999996,-77.093438,3388724,14220,2008.1817875584502
4215 River Rd NW,4215 River Rd NW,Washington,DC,20016,,1 day,Not specified,,4750.0,Contact Management,38.950696,-77.082588,3388724,14220,411.36716268522764
4849 Rodman St NW,4849 Rodman St NW,Washington,DC,20016,,1 day,Not specified,,5000.0,Contact Management,38.939552,-77.096467,3388724,14220,1722.45174679672
3901 Cathedral Ave NW Unit 84,3901 Cathedral Ave NW Unit 84,Washington,DC,20016,,1 day,Not specified,,1650.0,Contact Management,38.929402,-77.077473,3388724,14220,1766.0885617842168
4824 Alton Pl NW,4824 Alton Pl NW,Washington,DC,20016,,1 day,Not specified,,4300.0,Contact Management,38.946901000000004,-77.09561,3388724,14220,1386.90263607813
2860 Arizona Ave NW,2860 Arizona Ave NW,Washington,DC,20016,,New,Not specified,,5200.0,Contact Management,38.929427000000004,-77.102756,3388724,14220,2860.63748437185
4935 Loughboro Rd NW,4935 Loughboro Rd NW,Washington,DC,20016,,1 day,Not specified,,12500.0,Contact Management,38.93349,-77.098824,3388724,14220,2301.036467213006
3840 39th St NW Unit A103,3840 39th St NW Unit A103,Washington,DC,20016,,1 day,Not specified,,2900.0,Contact Management,38.939762,-77.078626,3388724,14220,898.7535628412279
4408 Klingle St NW,4408 Klingle St NW,Washington,DC,20016,,1 day,Not specified,,7200.0,Contact Management,38.931113,-77.086833,3388724,14220,1958.5548475738124
4412 Springdale St NW,4412 Springdale St NW,Washington,DC,20016,,1 day,Not specified,,3950.0,Contact Management,38.940341,-77.086187,3388724,14220,1006.1935794650661
3813 Yuma St NW,3813 Yuma St NW,Washington,DC,20016,,1 day,Not specified,,5400.0,Contact Management,38.94648,-77.076202,3388724,14220,330.0319817666627
4646 Hawthorne Ln NW,4646 Hawthorne Ln NW,Washington,DC,20016,,1 day,Not specified,,13000.0,Contact Management,38.928607,-77.092863,3388724,14220,2423.0889988279423
4201 Cathedral Ave NW Unit 1121E,4201 Cathedral Ave NW Unit 1121E,Washington,DC,20016,,1 day,Not specified,,2000.0,Contact Management,38.930823,-77.082977,3388724,14220,1910.8985537133444
3929 Garrison St NW,3929 Garrison St NW,Washington,DC,20016,,1 day,Not specified,,4300.0,Contact Management,38.956165999999996,-77.078471,3388724,14220,824.2863639519511
5022 Eskridge Ter NW,5022 Eskridge Ter NW,Washington,DC,20016,,1 day,Not specified,,7400.0,Contact Management,38.925517,-77.098754,3388724,14220,2980.59341805547
4105 Wisconsin Ave NW,4105 Wisconsin Ave NW,Washington,DC,20016,,1 day,Not specified,,1445.0,Contact Management,38.942584000000004,-77.076195,3388724,14220,651.8453561677007
3244 38th St NW,3244 38th St NW,Washington,DC,20016,,1 day,Not specified,,7000.0,Contact Management,38.933295,-77.074314,3388724,14220,1400.315190440854
4101 Albemarle St NW Unit 419,4101 Albemarle St NW Unit 419,Washington,DC,20016,,1 day,Not specified,,1850.0,Contact Management,38.948175,-77.080823,3388724,14220,112.15348889292422
5308 MacArthur Blvd NW,5308 MacArthur Blvd NW,Washington,DC,20016,,1 day,Not specified,,5250.0,Contact Management,38.927762,-77.10494200000002,3388724,14220,3125.220264143234
The Abby Apartments,3621 Newark St NW, Washington,DC,20016,,2 days,Not specified,1.0,1720.0,Contact Management,38.934807,-77.072194,3388724,14220,1208.20797854405
The Fleetwood,3707 Woodley Rd NW, Washington,DC,20016,,2 wks,Not specified,1.0,1325.0,Contact Management,38.932118,-77.073299,3388724,14220,1335.0634769799701
Takoma Central,235 Carroll St NW, Washington,DC,20012,,New,51,2.0,3276.0,Yes,38.975124,-77.015375,657911,7570,217.35519367352222
Willow and Maple,6918 Willow St NW, Washington,DC,20012,,58 min,Not specified,3.0,2970.0,Contact Management,38.972842,-77.01526899999998,657911,7570,372.3380080728441
Gables Takoma Park,7035 Blair Rd NW, Washington,DC,20012,,7 hrs,Not specified,2.0,2225.0,Contact Management,38.975719,-77.01879699999998,657911,7570,85.80364200399427
Takoma Flats,7730 Eastern Ave NW, Washington,DC,20012,,4 days,Not specified,2.0,2025.0,Contact Management,38.98356500000001,-77.025683,657911,7570,1121.682837433338
Takoma Place,6650-6676 Georgia Ave NW, Washington,DC,20012,,New,Not specified,2.0,1425.0,Contact Management,38.972091,-77.027363,657911,7570,908.2752288336104
Luzon Van Buren Apartments,6600 Luzon Ave NW, Washington,DC,20012,,2 wks,Not specified,2.0,1935.0,Contact Management,38.970493,-77.03303199999998,657911,7570,1428.321098801267
Genesis,6925 Georgia Ave NW, Washington,DC,20012,,7 hrs,Not specified,3.0,1980.0,Contact Management,38.974205,-77.026453,657911,7570,759.5432632191535
1545 Geranium St NW,1545 Geranium St NW,Washington,DC,20012,,1 day,Not specified,1.0,1850.0,Contact Management,38.979549,-77.03595200000002,657911,7570,1628.6084772176441
1800 Primrose Rd NW,1800 Primrose Rd NW,Washington,DC,20012,,1 day,Not specified,,3100.0,Contact Management,38.990356,-77.04521700000002,657911,7570,1261.924913691551
7053 Spring Pl NW,7053 Spring Pl NW,Washington,DC,20012,,1 day,Not specified,,1790.0,Contact Management,38.976279999999996,-77.019093,657911,7570,136.97639319453987
6626 Piney Branch Rd NW,6626 Piney Branch Rd NW,Washington,DC,20012,,1 day,Not specified,1.0,1350.0,Contact Management,38.971016999999996,-77.02490999999998,657911,7570,791.3454836609269
The Normandie,6817 Georgia Ave NW, Washington,DC,20012,,2 wks,Not specified,1.0,1550.0,Contact Management,38.972970000000004,-77.026522,657911,7570,803.2586366782054
The Dahlia,7019 Georgia Ave NW, Washington,DC,20012,,2 wks,Not specified,1.0,1475.0,Contact Management,38.97551,-77.026423,657911,7570,742.4765044415543
The Van Buren,6505 14th St NW, Washington,DC,20012,,2 wks,Not specified,2.0,1985.0,Contact Management,38.969643,-77.03300899999998,657911,7570,1466.2028568930984
Residences on The Avenue,2221 I St NW, Washington,DC,20037,,1 hr,24,3.0,6833.0,Yes,38.900975,-77.04961999999998,756865,4970,70.29332845929368
The Westpark Apartments,2130 P St NW, Washington,DC,20037,,New,22,2.0,3725.0,Yes,38.909482000000004,-77.048363,756865,4970,410.39300982926903
2400 M,2400 M St NW, Washington,DC,20037,,New,22,3.0,4335.0,Contact Management,38.905065,-77.05170799999998,756865,4970,511.88632085265033
Columbia Plaza Apartments,2400 Virginia Ave NW, Washington,DC,20037,,5 hrs,55,3.0,3450.0,Contact Management,38.897149,-77.051171,756865,4970,391.41441925357987
Westbrooke Place,2201 N St, Washington,DC,20037,,7 hrs,26,2.0,6160.0,Contact Management,38.898918,-77.05544599999998,756865,4970,485.11269001027733
The Savoy,1101 New Hampshire Ave NW, Washington,DC,20037,,2 wks,73,3.0,3900.0,Contact Management,38.904025,-77.048315,756865,4970,416.93340287767865
Winston House,2140 L St NW, Washington,DC,20037,,2 wks,55,2.0,3800.0,Contact Management,38.903447,-77.048128,756865,4970,367.07149803060065
WestEnd25,1255 25th St NW, Washington,DC,20037,,New,Not specified,2.0,8972.0,Contact Management,38.906494,-77.052676,756865,4970,687.6848242218636
West End Residences,1221 24th St NW, Washington,DC,20037,,6 hrs,Not specified,2.0,4065.0,Contact Management,38.906538,-77.05112199999998,756865,4970,664.4605330051088
The 925 Apartments,925 25th St NW, Washington,DC,20037,,6 hrs,Not specified,1.0,2430.0,Contact Management,38.901435,-77.053049,756865,4970,257.58139371562004
Colonial Arms Apartments,939 26th St NW, Washington,DC,20037,,2 wks,Not specified,1.0,1995.0,Contact Management,38.901858000000004,-77.054526,756865,4970,393.7608271037797
Elise Apartments,825 New Hampshire Ave NW, Washington,DC,20037,,2 wks,Not specified,2.0,3595.0,Contact Management,38.900194,-77.05194399999998,756865,4970,151.45228616660532
922 24th St NW Unit 413,922 24th St NW Unit 413,Washington,DC,20037,,1 day,Not specified,,2200.0,Contact Management,38.901488,-77.05165799999997,756865,4970,155.35819966545688
2135 Newport Pl NW Unit #3,2135 Newport Pl NW Unit #3,Washington,DC,20037,,1 day,Not specified,1.0,1500.0,Contact Management,38.908062,-77.04786800000002,756865,4970,400.79176155215106
1001 26th St NW Unit 403,1001 26th St NW Unit 403,Washington,DC,20037,,5 days,Not specified,,2400.0,Contact Management,38.902943,-77.054502,756865,4970,449.2843237382972
2141 P St NW,2141 P St NW,Washington,DC,20037,,New,Not specified,1.0,1999.0,Contact Management,38.909987,-77.047957,756865,4970,379.1611063131861
2401 H St NW,2401 H St NW,Washington,DC,20037,,1 wk,Not specified,1.0,1700.0,Contact Management,38.899425,-77.05143299999997,756865,4970,164.67570880597592
2135 Newport Pl NW Unit 3,2135 Newport Pl NW Unit 3,Washington,DC,20037,,1 wk,Not specified,1.0,1500.0,Contact Management,38.908062,-77.04786800000002,756865,4970,400.79176155215106
2135 Newport Pl NW Unit #3,2135 Newport Pl NW Unit #3,Washington,DC,20037,,1 wk,Not specified,1.0,1500.0,Contact Management,38.908062,-77.04786800000002,756865,4970,400.79176155215106
1001 26th St NW Unit 403,1001 26th St NW Unit 403,Washington,DC,20037,,1 wk,Not specified,,2400.0,Contact Management,38.902943,-77.054502,756865,4970,449.2843237382972
922 24th St NW Unit 121,922 24th St NW Unit 121,Washington,DC,20037,,1 wk,Not specified,1.0,2100.0,Contact Management,38.901488,-77.05165799999997,756865,4970,155.35819966545688
950 25th St NW Unit 8XXN,950 25th St NW Unit 8XXN,Washington,DC,20037,,2 wks,Not specified,,2298.0,Contact Management,38.902094,-77.053567,756865,4970,329.97882490399735
2700 Virginia Ave NW Unit 809,2700 Virginia Ave NW Unit 809,Washington,DC,20037,,1 day,Not specified,,4250.0,Contact Management,38.90003400000001,-77.056268,756865,4970,522.5753745047916
955 26th St NW Unit 112,955 26th St NW Unit 112,Washington,DC,20037,,1 day,Not specified,,3995.0,Contact Management,38.902225,-77.054429,756865,4970,402.5296951268426
2141 I St NW,2141 I St NW,Washington,DC,20037,,1 day,Not specified,,1550.0,Contact Management,38.900985,-77.048223,756865,4970,182.51675790874668
1275 25th St NW,1275 25th St NW,Washington,DC,20037,,1 day,Not specified,,3200.0,Contact Management,38.906949,-77.053067,756865,4970,746.3330430212557
Elevation at Washington Gateway,100 Florida Ave NE, Washington,DC,20002,,New,55,2.0,3676.0,Yes,38.90883400000001,-77.003353,2258354,32160,162.25988822351454
Anthology,625 H St NE, Washington,DC,20002,,42 min,41,2.0,3861.0,Yes,38.900053,-76.997914,2258354,32160,806.9404943365225
Station House,701 2nd St NE, Washington,DC,20002,,New,67,3.0,5955.0,Yes,38.89929,-77.003057,2258354,32160,363.6203002913514
Avalon First and M,1160 1st St NE, Washington,DC,20002,,1 day,32,3.0,4222.0,Yes,38.905164,-77.006291,2258354,32160,381.09195529556405
The Metropolitan Apartments,200 Rhode Island Ave NE, Washington,DC,20002,,2 wks,29,2.0,2399.0,Yes,38.91917700000001,-77.003273,2258354,32160,654.1301635624434
The Apollo,600-616 H St NE, Washington,DC,20002,,New,7,3.0,5631.0,Contact Management,38.900353,-76.998153,2258354,32160,798.9771546248234
Senate Square,201 Eye St NE, Washington,DC,20002,,New,20,2.0,3382.0,Contact Management,38.908218,-76.982147,2258354,32160,1803.2327981234935
Loree Grand at Union Place,250 K St NE, Washington,DC,20002,,1 hr,26,2.0,3789.0,Contact Management,38.902802,-77.002438,2258354,32160,514.0485946546496
Camden NoMa,60 L St NE, Washington,DC,20002,,35 min,61,2.0,3669.0,Contact Management,38.903988,-77.007537,2258354,32160,548.924211731956
The Gale Eckington,151 Q St NE, Washington,DC,20002,,New,53,2.0,3775.0,Contact Management,38.910927,-77.00409499999998,2258354,32160,403.5173970237386
Flats at Atlas,1600 Maryland Ave NE, Washington,DC,20002,,7 hrs,58,2.0,2635.0,Contact Management,38.901693,-76.980818,2258354,32160,1775.2450852341024
360H Street,360 H St NE, Washington,DC,20002,,7 hrs,54,2.0,3810.0,Contact Management,38.900355,-77.001171,2258354,32160,564.2038323818816
2321 4th Street,2321 4th St NE, Washington,DC,20002,,2 wks,36,2.0,,Contact Management,38.920867,-77.000403,2258354,32160,382.5502168158623
Aria on L,300 L St NE, Washington,DC,20002,,2 wks,37,2.0,3000.0,Contact Management,38.903987,-77.001795,2258354,32160,393.44309759792276
Flats 130 at Constitution Square,130 M St NE, Washington,DC,20002,,New,Not specified,2.0,5552.0,Contact Management,38.9059,-77.00496600000002,2258354,32160,241.20254950329064
East and West Panorama Courts,325 Franklin St NE, Washington,DC,20002,,1 wk,Not specified,2.0,1915.0,Contact Management,38.925282,-77.000915,2258354,32160,661.0037733361023
Parkway Plaza,1835-1855 24th St NE, Washington,DC,20002,,1 wk,Not specified,2.0,1740.0,Contact Management,38.915228000000006,-76.970378,2258354,32160,2298.549990644739
The Shelby,405 10th St NE, Washington,DC,20002,,2 wks,Not specified,2.0,1900.0,Contact Management,38.895,-76.99244200000003,2258354,32160,1234.9868519835518
"501 12th St, NE",501 12th St NE, Washington,DC,20002,,2 wks,Not specified,2.0,,Contact Management,38.896361999999996,-76.989903,2258354,32160,1439.6974736831526
1226 Queen St NE,1226 Queen St NE,Washington,DC,20002,,2 days,Not specified,1.0,1005.0,Contact Management,38.906821,-76.986126,2258354,32160,1458.1558317954787
909 19th St NE Unit 2,909 19th St NE Unit 2,Washington,DC,20002,,3 days,Not specified,1.0,1200.0,Contact Management,38.902444,-76.975975,2258354,32160,1839.8080599508626
703 Florida Ave NE,703 Florida Ave NE,Washington,DC,20002,,New,Not specified,,3200.0,Contact Management,38.904990999999995,-76.995867,2258354,32160,670.0506534693618
146 R St NE,146 R St NE,Washington,DC,20002,,5 days,Not specified,,4800.0,Contact Management,38.912799,-77.00477,2258354,32160,619.6572983348046
1821 2nd St NE,1821 2nd St NE,Washington,DC,20002,,5 days,Not specified,,2600.0,Contact Management,38.914679,-77.00325,2258354,32160,808.9960412760468
1653 Trinidad Ave NE Unit 1,1653 Trinidad Ave NE Unit 1,Washington,DC,20002,,New,Not specified,,1599.0,Contact Management,38.907318,-76.983052,2258354,32160,1722.7087320703847
404 M St NE Unit B,404 M St NE Unit B,Washington,DC,20002,,New,Not specified,1.0,1300.0,Contact Management,38.905813,-77.00024300000003,2258354,32160,294.4954851879036
209 Ascot Pl NE,209 Ascot Pl NE,Washington,DC,20002,,1 wk,Not specified,,2850.0,Contact Management,38.920613,-77.00305999999998,2258354,32160,612.3207084981249
1808 H St NE,1808 H St NE,Washington,DC,20002,,1 wk,Not specified,,2200.0,Contact Management,38.900343,-76.977411,2258354,32160,1601.5533334214724
812 5th St NE Unit 2,812 5th St NE Unit 2,Washington,DC,20002,,New,Not specified,,2995.0,Contact Management,38.900648,-76.999769,2258354,32160,685.7275367107612
1424 North Capitol St NW Unit 3R,1424 North Capitol St NW Unit 3R,Washington,DC,20002,,1 wk,Not specified,2.0,2995.0,Contact Management,38.909363,-77.009416,2258354,32160,599.3821812500105
1100 Holbrook Terrace NE Unit 1-4,1100 Holbrook Terrace NE Unit 1-4,Washington,DC,20002,,New,Not specified,2.0,1895.0,Contact Management,38.908307,-76.98790799999998,2258354,32160,1306.3315718341994
1110 4th St NE,1110 4th St NE,Washington,DC,20002,,1 wk,Not specified,,3300.0,Contact Management,38.90414000000001,-77.000798,2258354,32160,408.6540104821646
138 Tennessee Ave NE,138 Tennessee Ave NE,Washington,DC,20002,,1 wk,Not specified,,3450.0,Contact Management,38.891338,-76.989346,2258354,32160,955.0214897384318
21 4th St NE Unit #B,21 4th St NE Unit #B,Washington,DC,20002,,1 wk,Not specified,1.0,1575.0,Contact Management,38.890628,-77.000374,2258354,32160,752.3590527481166
1816 D St NE Unit #4,1816 D St NE Unit #4,Washington,DC,20002,,1 wk,Not specified,2.0,2425.0,Contact Management,38.894944,-76.978364,2258354,32160,1004.0852717169136
33 U St NE Unit 2,33 U St NE Unit 2,Washington,DC,20002,,1 wk,Not specified,2.0,1950.0,Contact Management,38.916794,-77.007762,2258354,32160,1109.4593751574134
1747 L St NE,1747 L St NE,Washington,DC,20002,,1 wk,Not specified,,2150.0,Contact Management,38.903554,-76.978375,2258354,32160,1960.1013618186482
116 6th St NE Unit 305,116 6th St NE Unit 305,Washington,DC,20002,,1 wk,Not specified,2.0,2700.0,Contact Management,38.891401,-76.998745,2258354,32160,861.3408503917921
1350 Maryland Ave NE Unit 114,1350 Maryland Ave NE Unit 114,Washington,DC,20002,,1 wk,Not specified,,1975.0,Contact Management,38.899485,-76.985845,2258354,32160,1670.9057656154173
1350 Maryland Ave NE Unit 114,1350 Maryland Ave NE Unit 114,Washington,DC,20002,,1 wk,Not specified,,1950.0,Contact Management,38.899485,-76.985845,2258354,32160,1670.9057656154173
1717 Trinidad Ave NE,1717 Trinidad Ave NE,Washington,DC,20002,,1 wk,Not specified,2.0,1700.0,Contact Management,38.908153999999996,-76.98246999999998,2258354,32160,1774.9735834433268
201 I St NE,201 I St NE,Washington,DC,20002,,1 wk,Not specified,1.0,2610.0,Contact Management,38.901078999999996,-77.00325600000002,2258354,32160,480.01784812242624
1664 Trinidad Ave NE Unit 1,1664 Trinidad Ave NE Unit 1,Washington,DC,20002,,2 wks,Not specified,2.0,1350.0,Contact Management,38.907675,-76.983428,2258354,32160,1690.4043306425988
730 11th St NE Unit 104,730 11th St NE Unit 104,Washington,DC,20002,,2 wks,Not specified,,1950.0,Contact Management,38.899676,-76.991777,2258354,32160,1294.4454535087223
727 12th St NE,727 12th St NE,Washington,DC,20002,,2 wks,Not specified,,2500.0,Contact Management,38.899786,-76.989992,2258354,32160,1406.2474022387255
140 12th St NE,140 12th St NE,Washington,DC,20002,,2 wks,Not specified,,3775.0,Contact Management,38.891566,-76.990558,2258354,32160,925.0145446456664
418 H St NE,418 H St NE,Washington,DC,20002,,2 wks,Not specified,,7500.0,Contact Management,38.900353,-77.000392,2258354,32160,622.7160674125495
915 12th St NE Unit 2,915 12th St NE Unit 2,Washington,DC,20002,,1 day,Not specified,,3200.0,Contact Management,38.901837,-76.989935,2258354,32160,1286.1091118475306
2615 4th St NE Unit 105,2615 4th St NE Unit 105,Washington,DC,20002,,1 day,Not specified,,1500.0,Contact Management,38.924008,-77.000219,2258354,32160,515.9388773707981
1808 H Pl NE,1808 H Pl NE,Washington,DC,20002,,1 day,Not specified,,2200.0,Contact Management,38.908218,-76.982147,2258354,32160,1803.2327981234935
1173 Abbey Pl NE,1173 Abbey Pl NE,Washington,DC,20002,,1 day,Not specified,,3200.0,Contact Management,38.905452000000004,-77.001102,2258354,32160,270.4287847301148
1406 Morse St NE,1406 Morse St NE,Washington,DC,20002,,1 day,Not specified,,3500.0,Contact Management,38.901528000000006,-76.984107,2258354,32160,1757.556628788653
701 Florida Ave NE Unit 3,701 Florida Ave NE Unit 3,Washington,DC,20002,,1 day,Not specified,1.0,1495.0,Contact Management,38.905021999999995,-76.99594499999998,2258354,32160,662.4855934495828
1653 Trinidad Ave NE Unit 1,1653 Trinidad Ave NE Unit 1,Washington,DC,20002,,1 day,Not specified,,1599.0,Contact Management,38.907318,-76.983052,2258354,32160,1722.7087320703847
633 M St NE,633 M St NE,Washington,DC,20002,,1 day,Not specified,,2900.0,Contact Management,38.905449,-76.99730600000002,2258354,32160,535.5712639168623
812 5th St NE,812 5th St NE,Washington,DC,20002,,1 day,Not specified,,2995.0,Contact Management,38.900648,-76.999769,2258354,32160,685.7275367107612
1623 Lang Pl NE,1623 Lang Pl NE,Washington,DC,20002,,1 day,Not specified,,1999.0,Contact Management,38.904222999999995,-76.979825,2258354,32160,2033.0142537122229
39 Quincy Pl NE,39 Quincy Pl NE,Washington,DC,20002,,1 day,Not specified,,1850.0,Contact Management,38.911673,-77.00743100000003,2258354,32160,612.0488755044518
1824 N Capitol St NW,1824 N Capitol St NW,Washington,DC,20002,,New,Not specified,,3900.0,Contact Management,38.914951,-77.00936,2258354,32160,1005.0957754797842
1524 D St NE,1524 D St NE,Washington,DC,20002,,1 day,Not specified,,2850.0,Contact Management,38.894963,-76.98271,2258354,32160,1100.5148888662688
1414 Maryland Ave NE,1414 Maryland Ave NE,Washington,DC,20002,,1 day,Not specified,,3200.0,Contact Management,38.899836,-76.98486199999998,2258354,32160,1671.8690414166929
2102 D St NE,2102 D St NE,Washington,DC,20002,,1 day,Not specified,,1300.0,Contact Management,38.894961,-76.974666,2258354,32160,1032.3345005605786
646 E St NE,646 E St NE,Washington,DC,20002,,1 day,Not specified,,3500.0,Contact Management,38.896269000000004,-76.997466,2258354,32160,819.1222734553012
1439 A St NE Unit Apt B,1439 A St NE Unit Apt B,Washington,DC,20002,,1 day,Not specified,,2250.0,Contact Management,38.890617,-76.984658,2258354,32160,809.8710215496733
18 7th St NE,18 7th St NE,Washington,DC,20002,,1 day,Not specified,,6510.0,Contact Management,38.89047100000001,-76.996489,2258354,32160,712.7990894262887
2107 S St NE Unit L,2107 S St NE Unit L,Washington,DC,20002,,1 day,Not specified,,3600.0,Contact Management,38.913967,-76.97508499999998,2258354,32160,1958.7100458195298
314 A St NE Unit 1,314 A St NE Unit 1,Washington,DC,20002,,1 day,Not specified,,3150.0,Contact Management,38.891127000000004,-77.001354,2258354,32160,759.094849439544
621 C St NE Unit 1,621 C St NE Unit 1,Washington,DC,20002,,1 day,Not specified,,3300.0,Contact Management,38.893411,-76.997485,2258354,32160,933.8647870493536
917 Constitution Ave NE Unit 1,917 Constitution Ave NE Unit 1,Washington,DC,20002,,1 day,Not specified,,3450.0,Contact Management,38.891812,-76.99319200000002,2258354,32160,874.7385091706057
925 H St NE Unit 1004,925 H St NE Unit 1004,Washington,DC,20002,,1 day,Not specified,,5850.0,Contact Management,38.900052,-76.993545,2258354,32160,1154.4424789391735
1416 A St NE,1416 A St NE,Washington,DC,20002,,1 day,Not specified,,4500.0,Contact Management,38.89109000000001,-76.984883,2258354,32160,859.0221565923348
AVA H Street,318 I St NE, Washington,DC,20002,,1 day,Not specified,2.0,2645.0,Contact Management,38.90152,-77.000991,2258354,32160,652.8383403488108
1934 Bennett Pl NE,1934 Bennett Pl NE,Washington,DC,20002,,2 days,Not specified,,1300.0,Contact Management,38.89966,-76.975102,2258354,32160,1539.471435388853
The Lexington Apartments,1114 F St NE, Washington,DC,20002,,2 wks,Not specified,1.0,1450.0,Contact Management,38.897625,-76.99104799999998,2258354,32160,1358.4546223458615
Rhode Island Row,2300 Washington Pl NE, Washington,DC,20018,,New,44,3.0,4328.0,Yes,38.920417,-76.99544,525960,9290,59.26902465257707
The Carrolton Apartments,1615-1625 Franklin St NE, Washington,DC,20018,,4 days,Not specified,1.0,1125.0,Contact Management,38.925275,-76.981861,525960,9290,1321.6945210475717
Washington Overlook,3502 Commodore Joshua Barney Dr NE, Washington,DC,20018,,2 wks,Not specified,3.0,1799.0,Contact Management,38.9286,-76.95595300000002,525960,9290,2882.796524690256
1836 Bryant St NE,1836 Bryant St NE,Washington,DC,20018,,2 wks,Not specified,,1850.0,Contact Management,38.92153,-76.97765600000002,525960,9290,1587.997611999619
1309 Bryant St NE Unit 2,1309 Bryant St NE Unit 2,Washington,DC,20018,,1 day,Not specified,2.0,1700.0,Contact Management,38.920871999999996,-76.98864,525960,9290,635.5061501475604
2714 12th St NE,2714 12th St NE,Washington,DC,20018,,1 day,Not specified,,3600.0,Contact Management,38.924824,-76.99060899999998,525960,9290,649.8734661339953
Irving Street Apartments,1811 Irving St NE, Washington,DC,20018,,2 wks,Not specified,1.0,975.0,Contact Management,38.928754,-76.978677,525960,9290,1460.08659958693
425 Mass,425 Massachusetts Ave NW, Washington,DC,20001,,New,22,2.0,3840.0,Yes,38.90077700000001,-77.016936,1911826,25010,504.3186263546222
The Shay,1924 8th St NW, Washington,DC,20001,,New,70,2.0,4615.0,Yes,38.916539,-77.023213,1911826,25010,412.0673842339674
450K,450 K St NW, Washington,DC,20001,,New,59,2.0,5520.0,Yes,38.902274,-77.017966,1911826,25010,524.3207455807632
Meridian at Gallery Place,450 Massachusetts Ave NW, Washington,DC,20001,,7 hrs,56,2.0,4405.0,Yes,38.900492,-77.018321,1911826,25010,388.0420437130496
Jefferson Marketplace,1510-1514 7th St NW, Washington,DC,20001,,2 wks,60,3.0,4064.0,Yes,38.910277,-77.022256,1911826,25010,293.82596934710375
Ashton Judiciary Square,750 3rd St NW, Washington,DC,20001,,2 wks,17,2.0,5324.0,Yes,38.899059,-77.015506,1911826,25010,345.12834824418917
7th Flats,1825 7th St NW, Washington,DC,20001,,New,6,2.0,4795.0,Contact Management,38.91493,-77.021703,1911826,25010,227.6124412374156
77 H,77 H St NW, Washington,DC,20001,,1 hr,42,2.0,3696.0,Contact Management,38.900353,-77.011356,1911826,25010,494.71660800211765
Yale West Apartments,443 New York Ave NW, Washington,DC,20001,,1 hr,40,2.0,3417.0,Contact Management,38.904672,-77.017999,1911826,25010,382.6604897368769
Newseum Residences,565 Pennsylvania Ave NW, Washington,DC,20001,,New,49,2.0,6351.0,Contact Management,38.893307,-77.01956,1911826,25010,212.9036247583234
Mass Court Apartments,300 Massachusetts Ave NW, Washington,DC,20001,,38 min,18,2.0,3816.0,Contact Management,38.899642,-77.01566600000002,1911826,25010,404.5649977736566
Atlantic Plumbing,2112 8th St NW, Washington,DC,20001,,6 hrs,35,2.0,5330.0,Contact Management,38.918269,-77.023327,1911826,25010,524.2381394884045
Meridian at Mt Vernon Triangle,425 L St NW, Washington,DC,20001,,New,52,2.0,5010.0,Contact Management,38.903935,-77.017262,1911826,25010,470.30030303511137
Lyric 440K Apartments,440 K St NW, Washington,DC,20001,,1 wk,72,2.0,3454.0,Contact Management,38.902281,-77.01745799999998,1911826,25010,555.792422250517
City Market at O Street,880 P St NW, Washington,DC,20001,,1 hr,Not specified,2.0,3925.0,Contact Management,38.909482000000004,-77.02365,1911826,25010,402.4047370763104
The Apartments at CityCenter,875 10th St NW, Washington,DC,20001,,1 hr,Not specified,3.0,5673.0,Contact Management,38.900593,-77.025684,1911826,25010,329.4169979673024
Gables City Vista,460 L St NW, Washington,DC,20001,,New,Not specified,3.0,4220.0,Contact Management,38.903479,-77.017739,1911826,25010,456.73306570643115
Carmel Plaza,200 K St NW, Washington,DC,20001,,5 days,Not specified,2.0,1920.0,Contact Management,38.902229,-77.01419399999997,1911826,25010,715.4046251298136
Washington Apartments,1205 1/2 7th St NW, Washington,DC,20001,,1 wk,Not specified,3.0,3050.0,Contact Management,38.906356,-77.021618,1911826,25010,100.19852027508645
The Severna on K,43 K St NW, Washington,DC,20001,,2 wks,Not specified,2.0,2550.0,Contact Management,38.902812,-77.011545,1911826,25010,701.9586751538485
Heritage at Shaw Station,1709 8th St NW, Washington,DC,20001,,New,Not specified,3.0,2095.0,Contact Management,38.913337,-77.022638,1911826,25010,60.299821641675685
Asbury Dwellings,1616 Marion St NW, Washington,DC,20001,,2 wks,Not specified,1.0,,Contact Management,38.912083,-77.021578,1911826,25010,107.15391321075757
Fairmont Place,743 Fairmont St NW, Washington,DC,20001,,2 wks,Not specified,1.0,,Contact Management,38.925272,-77.024218,1911826,25010,831.1719878455796
1834 8th St NW,1834 8th St NW,Washington,DC,20001,,New,Not specified,,2000.0,Contact Management,38.914934,-77.023195,1911826,25010,240.21350382134648
1834 8th St NW,1834 8th St NW,Washington,DC,20001,,1 day,Not specified,,5200.0,Contact Management,38.914934,-77.023195,1911826,25010,240.21350382134648
437 New York Ave NW Unit 312,437 New York Ave NW Unit 312,Washington,DC,20001,,1 day,Not specified,,2250.0,Contact Management,38.904971999999994,-77.017286,1911826,25010,435.75931306594254
434 N St NW,434 N St NW,Washington,DC,20001,,2 days,Not specified,2.0,3495.0,Contact Management,38.907084999999995,-77.016942,1911826,25010,488.4149075020822
426 N St NW,426 N St NW,Washington,DC,20001,,2 days,Not specified,2.0,2895.0,Contact Management,38.907086,-77.016766,1911826,25010,502.8148862420239
311 M St NW,311 M St NW,Washington,DC,20001,,2 days,Not specified,2.0,2895.0,Contact Management,38.905811,-77.015737,1911826,25010,564.5567451147965
777 7th St NW Unit 924,777 7th St NW Unit 924,Washington,DC,20001,,3 days,Not specified,,3200.0,Contact Management,38.899414,-77.021676,1911826,25010,120.37974250067089
1522 3rd St NW,1522 3rd St NW,Washington,DC,20001,,4 days,Not specified,,2325.0,Contact Management,38.910412,-77.015456,1911826,25010,646.2087843178946
34 Hanover Pl NW,34 Hanover Pl NW,Washington,DC,20001,,4 days,Not specified,,3500.0,Contact Management,38.907759999999996,-77.010224,1911826,25010,629.6734542441183
433 Elm St NW,433 Elm St NW,Washington,DC,20001,,New,Not specified,,1850.0,Contact Management,38.917378,-77.018532,1911826,25010,588.4018613318649
1116 5th St NW,1116 5th St NW,Washington,DC,20001,,1 wk,Not specified,,2600.0,Contact Management,38.904886,-77.019176,1911826,25010,278.2147497672031
919 Florida Ave NW Unit 104,919 Florida Ave NW Unit 104,Washington,DC,20001,,1 wk,Not specified,,1900.0,Contact Management,38.918498,-77.024182,1911826,25010,468.19709942321697
2001 1st St NW,2001 1st St NW,Washington,DC,20001,,1 wk,Not specified,,3500.0,Contact Management,38.917142999999996,-77.011964,1911826,25010,1001.9870179250629
334 U St NW,334 U St NW,Washington,DC,20001,,1 wk,Not specified,,2600.0,Contact Management,38.916668,-77.017094,1911826,25010,607.0236415972079
1734 6th St NW Unit 2,1734 6th St NW Unit 2,Washington,DC,20001,,1 wk,Not specified,,3884.0,Contact Management,38.913701,-77.020166,1911826,25010,195.8277696894393
1734 6th St NW Unit 9,1734 6th St NW Unit 9,Washington,DC,20001,,1 wk,Not specified,4.0,5590.0,Contact Management,38.913701,-77.020166,1911826,25010,195.8277696894393
2030 8th St NW Unit 306,2030 8th St NW Unit 306,Washington,DC,20001,,1 wk,Not specified,,2550.0,Contact Management,38.917578999999996,-77.02318000000002,1911826,25010,512.6910715749605
543 Florida Ave NW Unit 2,543 Florida Ave NW Unit 2,Washington,DC,20001,,2 wks,Not specified,,2100.0,Contact Management,38.915512,-77.01971,1911826,25010,359.6127933998717
42 T St NW Unit 2,42 T St NW Unit 2,Washington,DC,20001,,2 wks,Not specified,1.0,1750.0,Contact Management,38.915375,-77.010521,1911826,25010,1046.2134400759383
1326 9th St NW,1326 9th St NW,Washington,DC,20001,,2 wks,Not specified,,7200.0,Contact Management,38.908176,-77.024172,1911826,25010,330.57212066994475
1111 11th St NW Unit 105,1111 11th St NW Unit 105,Washington,DC,20001,,7 hrs,Not specified,,3195.0,Contact Management,38.904983,-77.026749,1911826,25010,394.8649822963511
Colonel,1250 9th St NW, Washington,DC,20001,,7 hrs,Not specified,2.0,3650.0,Contact Management,38.906936,-77.02419,1911826,25010,223.47737442225224
2120 Vermont Ave NW Unit 509,2120 Vermont Ave NW Unit 509,Washington,DC,20001,,1 day,Not specified,,3300.0,Contact Management,38.918673999999996,-77.024846,1911826,25010,429.37219102523295
66 New York Ave NW Unit 206,66 New York Ave NW Unit 206,Washington,DC,20001,,1 day,Not specified,,1495.0,Contact Management,38.906232,-77.01133100000001,1911826,25010,735.9332270248245
69 R St NW Unit B,69 R St NW Unit B,Washington,DC,20001,,1 day,Not specified,2.0,1999.0,Contact Management,38.912814000000004,-77.011359,1911826,25010,937.5278162619344
56 Adams St NW Unit B,56 Adams St NW Unit B,Washington,DC,20001,,1 day,Not specified,1.0,1500.0,Contact Management,38.920006,-77.011024,1911826,25010,1246.9625271480254
616 S St NW Unit 308,616 S St NW Unit 308,Washington,DC,20001,,1 day,Not specified,,1795.0,Contact Management,38.913938,-77.02042900000002,1911826,25010,190.15379276809603
811 4th St NW Unit 410,811 4th St NW Unit 410,Washington,DC,20001,,1 day,Not specified,,3000.0,Contact Management,38.900957,-77.015922,1911826,25010,545.4333907518597
738 Hobart Pl NW,738 Hobart Pl NW,Washington,DC,20001,,1 day,Not specified,,2700.0,Contact Management,38.927341,-77.02430600000002,1911826,25010,747.3903639161368
405 P St NW Unit B,405 P St NW Unit B,Washington,DC,20001,,1 day,Not specified,1.0,2500.0,Contact Management,38.909826,-77.016858,1911826,25010,575.7072344976697
428 M St NW,428 M St NW,Washington,DC,20001,,1 day,Not specified,,1550.0,Contact Management,38.905453,-77.01743,1911826,25010,417.9309627427106
315 R St NW,315 R St NW,Washington,DC,20001,,1 day,Not specified,,2800.0,Contact Management,38.912812,-77.015869,1911826,25010,547.3747010043744
2229 1st St NW,2229 1st St NW,Washington,DC,20001,,1 day,Not specified,,2300.0,Contact Management,38.919948,-77.01184,1911826,25010,1188.8345344419272
1132 6th St NW Unit 3,1132 6th St NW Unit 3,Washington,DC,20001,,1 day,Not specified,,4500.0,Contact Management,38.905115,-77.020123,1911826,25010,192.41158577766237
607 P St NW,607 P St NW,Washington,DC,20001,,1 day,Not specified,,2650.0,Contact Management,38.909831,-77.02034499999998,1911826,25010,378.80963151244435
1506 1st St NW,1506 1st St NW,Washington,DC,20001,,2 days,Not specified,,3250.0,Contact Management,38.909908,-77.012403,1911826,25010,863.0149283737674
1301 Thomas Circle,1301 M St NW, Washington,DC,20005,,1 hr,11,3.0,7876.0,Yes,38.905845,-77.029898,831039,7890,599.2806935392368
The Woodward,733 15th St NW, Washington,DC,20005,,5 hrs,38,3.0,5700.0,Yes,38.899833,-77.033373,831039,7890,166.66014915790086
Latrobe Apartments,1325 15th St NW, Washington,DC,20005,,7 hrs,23,2.0,9029.0,Yes,38.908565,-77.03426,831039,7890,764.15570849288
Zen Apollo,1234 Massachusetts Ave NW, Washington,DC,20005,,5 days,22,0.0,1800.0,Yes,38.904196999999996,-77.029313,831039,7890,493.5606217545583
1500 Mass,1500 Massachusetts Ave NW, Washington,DC,20005,,New,17,1.0,2370.0,Contact Management,38.906502,-77.03550899999998,831039,7890,520.725321459432
Post Massachusetts Avenue,1499 Massachusetts Ave NW, Washington,DC,20005,,6 hrs,51,3.0,6550.0,Contact Management,38.90687,-77.034162,831039,7890,619.1513907986518
The Hudson,1425 P St NW, Washington,DC,20005,,7 hrs,13,2.0,3800.0,Contact Management,38.909875,-77.03299799999998,831039,7890,815.0276058296186
Mai Place,1400-1404 14th St NW, Washington,DC,20005,,1 wk,15,1.0,3600.0,Contact Management,38.909107,-77.032321,831039,7890,871.466379329468
1210 Mass,1210 Massachusetts Ave NW, Washington,DC,20005,,New,Not specified,2.0,3370.0,Contact Management,38.904185,-77.028625,831039,7890,539.4444618070752
Andover House,1200 14th St NW, Washington,DC,20005,,New,Not specified,2.0,13341.0,Contact Management,38.907016,-77.032381,831039,7890,643.2825641381934
Belvedere,1301 Massachusetts Ave NW, Washington,DC,20005,,6 hrs,Not specified,2.0,2232.0,Contact Management,38.905252000000004,-77.029942,831039,7890,542.7830054229554
Holm,1550 11th St NW, Washington,DC,20005,,7 hrs,Not specified,2.0,7500.0,Contact Management,38.910833000000004,-77.027189,831039,7890,490.48979586009295
Miramar Apartments,1301 15th St NW, Washington,DC,20005,,1 wk,Not specified,0.0,1625.0,Contact Management,38.907603,-77.034295,831039,7890,681.6780063044315
Windsor House,1444 Rhode Island Ave NW, Washington,DC,20005,,2 wks,Not specified,1.0,2562.0,Contact Management,38.907852,-77.033624,831039,7890,726.7740791622891
Newport West Apartments,1415 Rhode Island Ave NW, Washington,DC,20005,,2 wks,Not specified,2.0,3600.0,Contact Management,38.908842,-77.032661,831039,7890,841.2350040199302
Mass Place,1111 Massachusetts Ave NW, Washington,DC,20005,,2 wks,Not specified,1.0,1229.0,Contact Management,38.904469,-77.027603,831039,7890,479.5828832456835
Seville Apartments,1401 N St NW, Washington,DC,20005,,2 wks,Not specified,0.0,1785.0,Contact Management,38.907089,-77.03195,831039,7890,658.6064013925228
Palisades,1464 Rhode Island Ave NW, Washington,DC,20005,,2 wks,Not specified,0.0,1750.0,Contact Management,38.90779000000001,-77.03403,831039,7890,712.5663984735799
The Cambridge Apartments,1221 Massachusetts Ave NW, Washington,DC,20005,,2 wks,Not specified,1.0,1875.0,Contact Management,38.90497,-77.02900799999998,831039,7890,571.4675072215836
1502 13th St NW Unit 4,1502 13th St NW Unit 4,Washington,DC,20005,,New,Not specified,,2300.0,Contact Management,38.910559,-77.029853,831039,7890,664.1212529319532
1211 13th St NW,1211 13th St NW,Washington,DC,20005,,1 day,Not specified,2.0,2900.0,Contact Management,38.906345,-77.029349,831039,7890,619.2591276987065
1440 N St NW Unit 1006,1440 N St NW Unit 1006,Washington,DC,20005,,4 days,Not specified,,2600.0,Contact Management,38.907092999999996,-77.03299200000002,831039,7890,644.9068425800183
1312 Massachusetts Ave NW Unit 208,1312 Massachusetts Ave NW Unit 208,Washington,DC,20005,,1 wk,Not specified,,2250.0,Contact Management,38.904635,-77.030399,831039,7890,464.1552326647516
1107 M St NW,1107 M St NW,Washington,DC,20005,,2 wks,Not specified,,6400.0,Contact Management,38.905823999999996,-77.027549,831039,7890,458.65468120462026
Camden Grand Parc,910 15th St NW, Washington,DC,20005,,New,Not specified,2.0,3999.0,Contact Management,38.901722,-77.034998,831039,7890,124.9188427399664
1150 K St NW Unit 1203,1150 K St NW Unit 1203,Washington,DC,20005,,1 day,Not specified,,2300.0,Contact Management,38.9022,-77.027835,831039,7890,433.92843787121865
1230 13th St NW,1230 13th St NW,Washington,DC,20005,,1 day,Not specified,,1950.0,Contact Management,38.90658,-77.030067,831039,7890,662.4543542062528
M Street Towers,1112 M St NW, Washington,DC,20005,,2 wks,Not specified,0.0,1895.0,Contact Management,38.905311,-77.027834,831039,7890,483.7628918288503
Ore 82,82 I St SE, Washington,DC,20003,,43 min,48,2.0,3735.0,Yes,38.879507000000004,-77.00562,1640358,14930,327.8530330199344
Dock 79,79 Potomac Ave SE, Washington,DC,20003,,New,31,2.0,4140.0,Yes,38.871544,-77.006608,1640358,14930,576.135328256706
Capitol Yards,100 Eye St SE, Washington,DC,20003,,New,51,2.0,5716.0,Contact Management,38.881904,-76.990935,1640358,14930,453.7829640404187
Parc Riverside,1011 1st St SE, Washington,DC,20003,,New,21,2.0,3669.0,Contact Management,38.878175,-77.006134,1640358,14930,198.41967998157438
The Bixby,601 L St SE, Washington,DC,20003,,New,2,3.0,3772.0,Contact Management,38.877264000000004,-76.997286,1640358,14930,679.3766349211736
Arris,1331 4th St SE, Washington,DC,20003,,7 hrs,31,2.0,5510.0,Contact Management,38.87429,-77.000773,1640358,14930,452.4296034808475
Insignia on M,1111 New Jersey Ave SE, Washington,DC,20003,,2 wks,20,0.0,,Contact Management,38.877001,-77.004795,1640358,14930,52.37866696641054
1600 Pennsylvania Ave SE,1600 Pennsylvania Ave SE, Washington,DC,20003,,2 wks,76,2.0,2650.0,Contact Management,38.879138,-76.981879,1640358,14930,382.70134648095257
Onyx on First,1100 1st St SE, Washington,DC,20003,,1 hr,Not specified,2.0,4333.0,Contact Management,38.877199,-77.005539,1640358,14930,78.44479016634773
Bell Capitol Hill,1717 E Capitol St SE, Washington,DC,20003,,New,Not specified,2.0,2930.0,Contact Management,38.889448,-76.979861,1640358,14930,440.9610177492851
215 C Street,215 C St SE, Washington,DC,20003,,7 hrs,Not specified,1.0,,Contact Management,38.8859,-77.002834,1640358,14930,224.6649263134121
Twelve12,1212 4th St SE, Washington,DC,20003,,7 hrs,Not specified,2.0,3083.0,Contact Management,38.875744,-77.000242,1640358,14930,429.69813664069363
Hill House Apartments,110 D St SE, Washington,DC,20003,,4 days,Not specified,1.0,2145.0,Contact Management,38.885228999999995,-77.005186,1640358,14930,29.3301372248525
400M Apartments,400 M St SE, Washington,DC,20003,,2 wks,Not specified,1.0,1209.0,Contact Management,38.876671,-77.000355,1640358,14930,409.6437707308581
Townhomes on Capitol Hill,750 6th St SE, Washington,DC,20003,,2 wks,Not specified,3.0,,Contact Management,38.880016,-76.99825899999998,1640358,14930,522.2623538474658
601 D St SE,601 D St SE,Washington,DC,20003,,4 days,Not specified,2.0,1995.0,Contact Management,38.88412,-76.99819000000002,1640358,14930,247.20444178009964
618 A St SE Unit A,618 A St SE Unit A,Washington,DC,20003,,New,Not specified,1.0,1395.0,Contact Management,38.888886,-76.997404,1640358,14930,559.0001677162105
1206 Walter St SE,1206 Walter St SE,Washington,DC,20003,,1 wk,Not specified,,3200.0,Contact Management,38.886953999999996,-76.989602,1640358,14930,587.5107037537867
236 12th St SE,236 12th St SE,Washington,DC,20003,,1 wk,Not specified,,3750.0,Contact Management,38.886394,-76.98991600000002,1640358,14930,532.5683758896794
1352 C St SE Unit House,1352 C St SE Unit House,Washington,DC,20003,,1 wk,Not specified,,3650.0,Contact Management,38.885549,-76.986175,1640358,14930,524.9785555800047
1352 C St SE Unit Lower,1352 C St SE Unit Lower,Washington,DC,20003,,1 wk,Not specified,,3650.0,Contact Management,38.885549,-76.986175,1640358,14930,524.9785555800047
716 11th St SE Unit 5,716 11th St SE Unit 5,Washington,DC,20003,,1 wk,Not specified,1.0,1600.0,Contact Management,38.880669,-76.991281,1640358,14930,481.6542397123415
1391 Pennsylvania Ave SE Unit 202,1391 Pennsylvania Ave SE Unit 202,Washington,DC,20003,,2 wks,Not specified,,2250.0,Contact Management,38.880346,-76.98659599999998,1640358,14930,93.6277605708197
210 Kentucky Ave SE,210 Kentucky Ave SE,Washington,DC,20003,,2 wks,Not specified,,2950.0,Contact Management,38.887285999999996,-76.987825,1640358,14930,738.942927293123
236 12th St SE,236 12th St SE,Washington,DC,20003,,2 wks,Not specified,,3900.0,Contact Management,38.886394,-76.98991600000002,1640358,14930,532.5683758896794
1025 First St SE Unit 1008,1025 First St SE Unit 1008,Washington,DC,20003,,8 hrs,Not specified,,1700.0,Contact Management,38.877783,-77.006189,1640358,14930,163.62486598320552
Foundry Lofts,301 Tingey St SE, Washington,DC,20003,,7 hrs,Not specified,2.0,6064.0,Contact Management,38.8747,-77.001582,1640358,14930,368.89204016951896
1022 Independence Ave SE,1022 Independence Ave SE,Washington,DC,20003,,1 day,Not specified,,4850.0,Contact Management,38.88776,-76.991777,1640358,14930,508.18054160355575
201 17th St SE,201 17th St SE,Washington,DC,20003,,1 day,Not specified,,2200.0,Contact Management,38.887440999999995,-76.98100000000002,1640358,14930,347.00837363388723
1232 C St SE,1232 C St SE,Washington,DC,20003,,1 day,Not specified,,1925.0,Contact Management,38.886201,-76.989071,1640358,14930,589.2393941451445
1391 Pennsylvania Ave SE Unit 540,1391 Pennsylvania Ave SE Unit 540,Washington,DC,20003,,1 day,Not specified,,2200.0,Contact Management,38.880346,-76.98659599999998,1640358,14930,93.6277605708197
226 Kentucky Ave SE,226 Kentucky Ave SE,Washington,DC,20003,,1 day,Not specified,2.0,1600.0,Contact Management,38.886958,-76.987539,1640358,14930,698.1446419135783
1431 Potomac Ave SE,1431 Potomac Ave SE,Washington,DC,20003,,1 day,Not specified,,3000.0,Contact Management,38.880611,-76.984063,1640358,14930,145.77769028282765
1008 S Carolina Ave SE,1008 S Carolina Ave SE,Washington,DC,20003,,1 day,Not specified,,4250.0,Contact Management,38.889292,-76.992284,1640358,14930,632.3903662215463
401 E St SE,401 E St SE,Washington,DC,20003,,1 day,Not specified,,1850.0,Contact Management,38.882578,-77.000484,1640358,14930,477.7673392956146
427 7th St SE Unit 3,427 7th St SE Unit 3,Washington,DC,20003,,1 day,Not specified,,2820.0,Contact Management,38.88303300000001,-76.99639300000003,1640358,14930,152.0500268822898
1006 E Capitol St NE Unit 1,1006 E Capitol St NE Unit 1,Washington,DC,20003,,1 day,Not specified,,2640.0,Contact Management,38.890091999999996,-76.992251,1640358,14930,715.251096475089
Aventine Fort Totten,5210 3rd St NE, Washington,DC,20011,,44 min,36,2.0,3041.0,No,38.953075,-77.001522,1944486,36430,154.95216484544878
The Swift at Petworth Metro,3828 Georgia Ave NW, Washington,DC,20011,,New,62,2.0,2975.0,Yes,38.937899,-77.02468499999998,1944486,36430,202.63129015903098
The Rittenhouse,6101 16th St NW, Washington,DC,20011,,5 hrs,63,3.0,2471.0,Contact Management,38.965061,-77.03537800000002,1944486,36430,1912.0698924435385
Fort Totten Square,5661 3rd St NE, Washington,DC,20011,,New,45,2.0,2510.0,Contact Management,38.958581,-77.016951,1944486,36430,1484.9461408219213
Park Place at Petworth Metro,850 Quincy St NW, Washington,DC,20011,,6 hrs,26,3.0,4708.0,Contact Management,38.937427,-77.024854,1944486,36430,150.5082190477136
Fahrenheit,3930-3936 Georgia Ave NW, Washington,DC,20011,,6 hrs,70,3.0,2715.0,Contact Management,38.939567,-77.025118,1944486,36430,389.53350995010635
Paramount,829 Quincy St NW, Washington,DC,20011,,6 hrs,Not specified,2.0,1904.0,Contact Management,38.937911,-77.024913,1944486,36430,204.55826808135026
Northwood Gardens,4900 Fort Totten Dr NE, Washington,DC,20011,,1 wk,Not specified,1.0,1393.0,Contact Management,38.950441999999995,-77.007437,1944486,36430,478.7121106571744
New Quin,811 Quincy St NW, Washington,DC,20011,,1 wk,Not specified,1.0,1850.0,Contact Management,38.937926000000004,-77.02386899999998,1944486,36430,218.611656418362
Hawaiian Gardens,4530 Fort Totten Dr NE, Washington,DC,20011,,New,Not specified,2.0,1755.0,Contact Management,38.946099,-77.005746,1944486,36430,702.8784985025954
Griffin Apartments at the Petworth Metro,3801 Georgia Ave NW, Washington,DC,20011,,2 wks,Not specified,2.0,2790.0,Contact Management,38.937894,-77.02414399999998,1944486,36430,208.25947667262128
Michigan Park Commons,5182 Eastern Ave NE, Washington,DC,20011,,2 wks,Not specified,3.0,1788.0,Contact Management,38.954683,-76.98872,1944486,36430,1207.432814861184
Rolling Terrace Apartments,1360 Peabody St NW, Washington,DC,20011,,2 wks,Not specified,2.0,1750.0,Contact Management,38.962751000000004,-77.032265,1944486,36430,1891.0976308094125
Petworth Place,930 Randolph St NW, Washington,DC,20011,,2 wks,Not specified,2.0,1189.0,Contact Management,38.938423,-77.025935,1944486,36430,280.976813510273
Walden Commons,1336 Missouri Ave NW, Washington,DC,20011,,2 wks,Not specified,2.0,1550.0,Contact Management,38.961134,-77.032072,1944486,36430,2019.4857036383532
1 Hawaiian Avenue Apartments,1 Hawaii Ave NE, Washington,DC,20011,,2 wks,Not specified,2.0,,Contact Management,38.946490999999995,-77.008147,1944486,36430,782.4832107911285
1349 Ingraham St NW,1349 Ingraham St NW,Washington,DC,20011,,1 day,Not specified,,3150.0,Contact Management,38.954309,-77.032359,1944486,36430,2132.01578928741
1425 Allison St NW Unit 101,1425 Allison St NW Unit 101,Washington,DC,20011,,2 days,Not specified,,2295.0,Contact Management,38.945202,-77.03425899999998,1944486,36430,1307.290085689192
1636 Nicholson St NW,1636 Nicholson St NW,Washington,DC,20011,,1 wk,Not specified,1.0,1300.0,Contact Management,38.960201,-77.03783100000003,1944486,36430,2427.945156704256
519 Kennedy St NW,519 Kennedy St NW,Washington,DC,20011,,1 wk,Not specified,1.0,1100.0,Contact Management,38.956666,-77.020629,1944486,36430,1685.870496392725
4903 Georgia Ave NW Unit 2,4903 Georgia Ave NW Unit 2,Washington,DC,20011,,2 wks,Not specified,2.0,1295.0,Contact Management,38.949949,-77.026902,1944486,36430,1553.9125706946809
4021 9th St NW Unit B4,4021 9th St NW Unit B4,Washington,DC,20011,,2 wks,Not specified,0.0,1099.0,Contact Management,38.940503,-77.02470500000003,1944486,36430,492.15276563755543
608 Kensington Pl NE,608 Kensington Pl NE,Washington,DC,20011,,2 wks,Not specified,,2800.0,Contact Management,38.958166999999996,-76.997435,1944486,36430,820.2318046277866
5819 5th St NE,5819 5th St NE,Washington,DC,20011,,1 day,Not specified,,3500.0,Contact Management,38.96103400000001,-77.000803,1944486,36430,1036.135471242861
913 Hamilton St NE,913 Hamilton St NE,Washington,DC,20011,,1 day,Not specified,,2200.0,Contact Management,38.953114,-77.026248,1944486,36430,1898.9832116123453
5538 Chillum Pl NE,5538 Chillum Pl NE,Washington,DC,20011,,1 day,Not specified,,2200.0,Contact Management,38.957628,-76.99973100000003,1944486,36430,684.0374825991593
939 Longfellow St NW Unit 211,939 Longfellow St NW Unit 211,Washington,DC,20011,,1 day,Not specified,,1425.0,Contact Management,38.957602,-77.02720500000002,1944486,36430,2152.050723091553
4708 Piney Branch Rd NW,4708 Piney Branch Rd NW,Washington,DC,20011,,1 day,Not specified,,2795.0,Contact Management,38.947662,-77.035679,1944486,36430,1598.8896903518219
712 Marietta Pl NW Unit 102,712 Marietta Pl NW Unit 102,Washington,DC,20011,,1 day,Not specified,,1500.0,Contact Management,38.959052,-77.023025,1944486,36430,1886.6470744104254
517 Oglethorpe St NE,517 Oglethorpe St NE,Washington,DC,20011,,1 day,Not specified,,2400.0,Contact Management,38.961496999999994,-77.02085699999998,1944486,36430,1582.3526614237092
601 Emerson St NW,601 Emerson St NW,Washington,DC,20011,,1 day,Not specified,4.0,3400.0,Contact Management,38.950112,-77.020404,1944486,36430,1587.265770183288
4816 Iowa Ave NW,4816 Iowa Ave NW,Washington,DC,20011,,1 day,Not specified,,3800.0,Contact Management,38.949371,-77.033263,1944486,36430,1652.2741245312034
4424 1st Pl NE Unit 33,4424 1st Pl NE Unit 33,Washington,DC,20011,,1 day,Not specified,,1375.0,Contact Management,38.943787,-77.00608000000003,1944486,36430,950.4932541200619
422 Kennedy St NW,422 Kennedy St NW,Washington,DC,20011,,1 day,Not specified,,1875.0,Contact Management,38.956245,-77.019255,1944486,36430,1558.3267706714212
4705 Georgia Ave NW,4705 Georgia Ave NW,Washington,DC,20011,,1 day,Not specified,,1400.0,Contact Management,38.947454,-77.026505,1944486,36430,1274.365641788048
338 Madison St NW,338 Madison St NW,Washington,DC,20011,,1 day,Not specified,,2100.0,Contact Management,38.958188,-77.017712,1944486,36430,1520.9708554900963
New Hampshire & First Apartments,5051 New Hampshire Ave NW, Washington,DC,20011,,New,Not specified,1.0,1185.0,Contact Management,38.951772,-77.012478,1944486,36430,891.023704382021
Clermont Apartments,99 Webster St NE, Washington,DC,20011,,2 wks,Not specified,1.0,1400.0,Contact Management,38.944257,-77.006165,1944486,36430,904.6128627139633
Rockford,1444 Rock Creek Ford Rd NW, Washington,DC,20011,,2 wks,Not specified,1.0,1311.0,Contact Management,38.963556,-77.03536899999997,1944486,36430,2017.771250011904
The Oklahoma,1401 Tuckerman St NW, Washington,DC,20011,,2 wks,Not specified,1.0,1475.0,Contact Management,38.96777700000001,-77.033689,1944486,36430,1619.345952231734
5759-5761 13th St NW,5759-5761 13th St NW,Washington,DC,20011,,2 wks,Not specified,2.0,1760.0,Contact Management,38.960088,-77.02933399999998,1944486,36430,1984.3324744248469
The Jennifer,1413-1415 Tuckerman St NW, Washington,DC,20011,,2 wks,Not specified,1.0,1464.0,Contact Management,38.96774600000001,-77.03435400000002,1944486,36430,1670.0713595938507
Quebec House Apartments,2800 Quebec St NW, Washington,DC,20008,,New,64,2.0,2425.0,No,38.936182,-77.055684,2977550,16830,274.56774608709173
The Brandywine Apartments,4545 Connecticut Ave NW, Washington,DC,20008,,6 hrs,40,3.0,3640.0,No,38.949228999999995,-77.065889,2977550,16830,656.7220977361266
AVA Van Ness,2950 Van Ness St NW, Washington,DC,20008,,New,14,2.0,2640.0,Yes,38.942899,-77.06118599999998,2977550,16830,216.46870643397364
Connecticut Plaza Apartments,2901 Connecticut Ave NW, Washington,DC,20008,,2 wks,50,2.0,2700.0,No,38.928375,-77.053791,2977550,16830,388.1968922582229
Park Van Ness,4455 Connecticut Ave NW, Washington,DC,20008,,2 wks,90,3.0,5985.0,Yes,38.946951,-77.064589,2977550,16830,381.9427360574678
The Woodley,2700 Woodley Rd NW, Washington,DC,20008,,New,89,3.0,13447.0,Contact Management,38.925252,-77.056152,2977550,16830,304.41991918798095
3003 Van Ness,3003 Van Ness St NW, Washington,DC,20008,,1 hr,15,2.0,3100.0,Contact Management,38.943723999999996,-77.06124799999998,2977550,16830,196.05338682530564
Connecticut Heights,4850 Connecticut Ave, Washington,DC,20008,,New,26,2.0,2335.0,Contact Management,38.952871,-77.068916,2977550,16830,1083.0236192874108
Kennedy-Warren,3133 Connecticut Ave NW, Washington,DC,20008,,6 hrs,29,3.0,6570.0,Contact Management,38.931921,-77.055482,2977550,16830,389.9059490523032
Ellicott House,4849 Connecticut Ave NW, Washington,DC,20008,,7 hrs,64,2.0,1880.0,Contact Management,38.952898,-77.06819300000002,2977550,16830,1108.2739519744086
3801 Connecticut Avenue,3801 Connecticut Ave NW, Washington,DC,20008,,New,Not specified,1.0,1655.0,Contact Management,38.939353000000004,-77.060075,2977550,16830,541.2232937765228
Cleveland House,2727 29th St NW, Washington,DC,20008,,New,Not specified,2.0,2700.0,Contact Management,38.924291,-77.057179,2977550,16830,399.7895620000268
2501 Porter,2501 Porter St NW, Washington,DC,20008,,1 hr,Not specified,2.0,2795.0,Contact Management,38.93548,-77.053993,2977550,16830,376.18469732393174
Calvert Woodley,2601 Woodley Pl NW, Washington,DC,20008,,New,Not specified,2.0,3465.0,Contact Management,38.923801,-77.050224,2977550,16830,248.42784720180984
Park Connecticut,4411 Connecticut Ave NW, Washington,DC,20008,,1 hr,Not specified,2.0,3125.0,Contact Management,38.946222999999996,-77.064104,2977550,16830,293.9485796838194
Cathedral Mansions,3000 Connecticut Ave NW, Washington,DC,20008,,6 hrs,Not specified,3.0,1835.0,Contact Management,38.929891999999995,-77.055565,2977550,16830,582.3734553347482
2100 Connecticut,2100 Connecticut Ave NW, Washington,DC,20008,,New,Not specified,2.0,2015.0,Contact Management,38.917947,-77.047724,2977550,16830,892.3805184956987
Calvert House Apartments,2401 Calvert St NW, Washington,DC,20008,,6 hrs,Not specified,2.0,3320.0,Contact Management,38.923953999999995,-77.053115,2977550,16830,123.0211057724575
Gables Woodley Park,2701 Calvert St NW, Washington,DC,20008,,New,Not specified,2.0,4244.0,Contact Management,38.92354,-77.056341,2977550,16830,358.303262554187
Avalon The Albemarle,4501 Connecticut Ave NW, Washington,DC,20008,,1 day,Not specified,3.0,4164.0,Contact Management,38.948484,-77.065202,2977550,16830,560.2738120525725
5100 Connecticut Avenue Apartments,5100 Connecticut Ave NW, Washington,DC,20008,,1 wk,Not specified,1.0,1416.0,Contact Management,38.9561,-77.070803,2977550,16830,1196.154212038125
The Parkway Apartments,3220 Connecticut Ave NW, Washington,DC,20008,,2 wks,Not specified,1.0,2150.0,Contact Management,38.933257,-77.057491,2977550,16830,172.8999508655891
3032 Rodman,3032 Rodman St NW, Washington,DC,20008,,2 wks,Not specified,1.0,,Contact Management,38.938084,-77.061663,2977550,16830,479.28105522931526
4801 Connecticut Avenue Apartments,4801 Connecticut Ave NW, Washington,DC,20008,,2 wks,Not specified,2.0,1600.0,Contact Management,38.95241,-77.067687,2977550,16830,1041.9857309540453
Porter Street,2724-2740 Porter St NW, Washington,DC,20008,,2 wks,Not specified,2.0,2399.0,Contact Management,38.935829999999996,-77.057152,2977550,16830,155.99233436572155
The State House,2122 Massachusetts Ave NW, Washington,DC,20008,,1 wk,Not specified,1.0,1899.0,Contact Management,38.910732,-77.048342,2977550,16830,430.9584240759223
4107 Connecticut Avenue NW,4107 Connecticut Ave NW, Washington,DC,20008,,2 wks,Not specified,1.0,,Contact Management,38.942594,-77.062087,2977550,16830,167.87606949095294
3701 Connecticut Ave NW Unit 307,3701 Connecticut Ave NW Unit 307,Washington,DC,20008,,4 hrs,Not specified,,1600.0,Contact Management,38.938376,-77.059384,2977550,16830,420.5206966995791
3001 Veazey Terrace NW,3001 Veazey Terrace NW,Washington,DC,20008,,2 days,Not specified,1.0,1800.0,Contact Management,38.944873,-77.061912,2977550,16830,196.30351889165567
2910 Upton St NW,2910 Upton St NW,Washington,DC,20008,,New,Not specified,,940.0,Contact Management,38.941844,-77.05928,2977550,16830,415.805181340368
2931 Tilden St NW,2931 Tilden St NW,Washington,DC,20008,,5 days,Not specified,1.0,1400.0,Contact Management,38.941244,-77.05981,2977550,16830,415.0336337749197
2270 Cathedral Ave NW,2270 Cathedral Ave NW,Washington,DC,20008,,New,Not specified,1.0,1250.0,Contact Management,38.927407,-77.051976,2977550,16830,273.9949846407497
3310 27th St NW Unit 1,3310 27th St NW Unit 1,Washington,DC,20008,,1 wk,Not specified,,2175.0,Contact Management,38.933993,-77.055525,2977550,16830,246.60153909731102
3520 Davenport St NW,3520 Davenport St NW,Washington,DC,20008,,2 wks,Not specified,,3400.0,Contact Management,38.951907,-77.069009,2977550,16830,1024.173479699668
3701 Connecticut Ave NW Unit 408,3701 Connecticut Ave NW Unit 408,Washington,DC,20008,,2 wks,Not specified,,2000.0,Contact Management,38.938376,-77.059384,2977550,16830,420.5206966995791
Sedgwick Gardens,3726 Connecticut Ave NW, Washington,DC,20008,,6 hrs,Not specified,2.0,2800.0,Contact Management,38.938998,-77.061083,2977550,16830,537.723552839215
2829 Connecticut Ave NW Unit 401,2829 Connecticut Ave NW Unit 401,Washington,DC,20008,,1 day,Not specified,,1995.0,Contact Management,38.927599,-77.053513,2977550,16830,298.63314121162847
2939 Van Ness St NW Unit 1101,2939 Van Ness St NW Unit 1101,Washington,DC,20008,,1 day,Not specified,,2400.0,Contact Management,38.944536,-77.060004,2977550,16830,319.94159987315356
3646 Alton Pl NW,3646 Alton Pl NW,Washington,DC,20008,,1 day,Not specified,,4400.0,Contact Management,38.946898,-77.07172800000002,2977550,16830,689.5244970223822
2934 Chesapeake St NW,2934 Chesapeake St NW,Washington,DC,20008,,1 day,Not specified,,4500.0,Contact Management,38.950404,-77.05945,2977550,16830,832.0906106366699
2716 Ordway St NW Unit 27,2716 Ordway St NW Unit 27,Washington,DC,20008,,1 day,Not specified,,2500.0,Contact Management,38.934031,-77.055977,2977550,16830,208.38472976619443
5157 Nebraska Ave NW,5157 Nebraska Ave NW,Washington,DC,20008,,1 day,Not specified,,3000.0,Contact Management,38.957179,-77.069089,2977550,16830,1383.569586246519
3630 Van Ness St NW,3630 Van Ness St NW,Washington,DC,20008,,1 day,Not specified,,4500.0,Contact Management,38.94293,-77.071635,2977550,16830,706.7722157937917
2737 Devonshire Pl NW Unit 511,2737 Devonshire Pl NW Unit 511,Washington,DC,20008,,1 day,Not specified,,3500.0,Contact Management,38.931779,-77.057536,2977550,16830,330.5663002267909
2960 Garfield St NW,2960 Garfield St NW,Washington,DC,20008,,1 day,Not specified,,5900.0,Contact Management,38.927208,-77.06036999999998,2977550,16830,711.7199811720532
2307 S St NW,2307 S St NW,Washington,DC,20008,,New,Not specified,,1375.0,Contact Management,38.914242,-77.050721,2977550,16830,809.70890492503
2232 Decatur Pl NW,2232 Decatur Pl NW,Washington,DC,20008,,1 day,Not specified,,3300.0,Contact Management,38.913185,-77.04994599999998,2977550,16830,683.793811788397
2000 Connecticut Ave NW,2000 Connecticut Ave NW,Washington,DC,20008,,1 day,Not specified,,2125.0,Contact Management,38.917033,-77.047165,2977550,16830,892.1249166619154
2745 29th St NW,2745 29th St NW,Washington,DC,20008,,1 day,Not specified,,2300.0,Contact Management,38.92494600000001,-77.05713399999998,2977550,16830,388.11177346955014
2101 Connecticut Ave NW,2101 Connecticut Ave NW,Washington,DC,20008,,1 day,Not specified,,6000.0,Contact Management,38.918371,-77.047067,2977550,16830,881.0664381215656
3616 Connecticut Ave NW Unit Apt 302,3616 Connecticut Ave NW Unit Apt 302,Washington,DC,20008,,1 day,Not specified,,1895.0,Contact Management,38.937371,-77.06003199999998,2977550,16830,335.27932847169046
The Delano,2745 29th St NW, Washington,DC,20008,,2 wks,Not specified,2.0,2995.0,Contact Management,38.92494600000001,-77.05713399999998,2977550,16830,388.11177346955014
Yuma Gardens Apartments,3429 Yuma St NW, Washington,DC,20008,,2 wks,Not specified,1.0,1599.0,Contact Management,38.946488,-77.066275,2977550,16830,398.5470003285919
Clarence House,4530 Connecticut Ave NW, Washington,DC,20008,,2 wks,Not specified,2.0,2720.0,Contact Management,38.948987,-77.06701,2977550,16830,669.1139530577822
Hillwood Apartments,4155 Linnean Ave NW, Washington,DC,20008,,2 wks,Not specified,1.0,3100.0,Contact Management,38.943634,-77.052617,2977550,16830,942.1524975385238
2701 Connecticut,2701 Connecticut Ave NW, Washington,DC,20008,,2 wks,Not specified,1.0,1955.0,Contact Management,38.925787,-77.05237,2977550,16830,90.86187351809848
The Mission,1350 R St NW, Washington,DC,20009,,New,66,2.0,3600.0,Yes,38.912440000000004,-77.031602,2930851,31890,505.7960430071048
The Hepburn,1901 Connecticut Ave NW, Washington,DC,20009,,7 hrs,21,3.0,14500.0,Yes,38.915918,-77.04641600000002,2930851,31890,753.6416285877681
Gelmarc Towers Apartments,1930 Columbia Rd NW, Washington,DC,20009,,1 wk,40,1.0,2100.0,No,38.918126,-77.044996,2930851,31890,966.6378384436063
Harvard Village Apartment,1829 Summit Pl NW, Washington,DC,20009,,2 wks,62,1.0,2249.0,Yes,38.926772,-77.04231300000002,2930851,31890,851.6846709384198
The Louis,1920-1934 14Th St NW, Washington,DC,20009,,2 wks,104,2.0,7198.0,Yes,38.916607,-77.032225,2930851,31890,284.68233258006194
The Alden,2620 13th St NW, Washington,DC,20009,,2 wks,37,4.0,2595.0,Yes,38.924259,-77.03006500000002,2930851,31890,543.8250258095661
District,1401 S St NW, Washington,DC,20009,,1 hr,13,2.0,5303.0,Contact Management,38.913944,-77.03195,2930851,31890,384.69791094732346
Capitol View on 14th,2420 14th St NW, Washington,DC,20009,,1 hr,16,2.0,11450.0,Contact Management,38.92112,-77.032136,2930851,31890,584.5629809705135
Elysium Fourteen,1921 14th St NW, Washington,DC,20009,,43 min,7,2.0,6620.0,Contact Management,38.91637,-77.03169399999999,2930851,31890,238.8068023489132
Chalfonte,1601 Argonne Pl NW, Washington,DC,20009,,6 hrs,31,2.0,3015.0,Contact Management,38.926671999999996,-77.038604,2930851,31890,551.0905855514799
Argonne Apartments,1629 Columbia Rd NW, Washington,DC,20009,,1 wk,52,3.0,4155.0,Contact Management,38.926086,-77.03783299999998,2930851,31890,523.5655050737217
Park Ellison Apartments,1700 Harvard St NW, Washington,DC,20009,,2 wks,49,2.0,2750.0,Contact Management,38.92685,-77.040432,2930851,31890,692.6443387311512
Corcoran House at Dupont Circle,1616 18th St NW, Washington,DC,20009,,New,Not specified,1.0,1970.0,Contact Management,38.91209,-77.041976,2930851,31890,321.3077189255136
The Melwood,1803 Biltmore St NW, Washington,DC,20009,,6 hrs,Not specified,1.0,2093.0,Contact Management,38.922538,-77.043502,2930851,31890,837.1866398282108
President Madison,1908 Florida Ave NW, Washington,DC,20009,,6 hrs,Not specified,2.0,2877.0,Contact Management,38.915032000000004,-77.044556,2930851,31890,620.5486313466394
Highview,2505 13th St NW, Washington,DC,20009,,6 hrs,Not specified,2.0,1625.0,Contact Management,38.922686,-77.029237,2930851,31890,689.560309108593
Diplomat,2420 16th St NW, Washington,DC,20009,,6 hrs,Not specified,1.0,1864.0,Contact Management,38.921581,-77.03700699999997,2930851,31890,869.3275291698401
Connecticut Gardens,1915 Kalorama Rd NW, Washington,DC,20009,,6 hrs,Not specified,2.0,2319.0,Contact Management,38.919609,-77.045682,2930851,31890,849.9213704435458
1841 Columbia Road,1841 Columbia Rd NW, Washington,DC,20009,,6 hrs,Not specified,2.0,,Contact Management,38.921488000000004,-77.04383399999998,2930851,31890,856.6208063476384
Barclay,1616 16th St NW, Washington,DC,20009,,6 hrs,Not specified,3.0,,Contact Management,38.911729,-77.036952,2930851,31890,627.9702970640549
Park Meridian,2637 16th St NW, Washington,DC,20009,,6 hrs,Not specified,1.0,,Contact Management,38.92434,-77.035742,2930851,31890,545.8067634253297
Ravenel,1610 16th St NW, Washington,DC,20009,,6 hrs,Not specified,2.0,,Contact Management,38.911483000000004,-77.036962,2930851,31890,616.8734248454914
14W,1315 W St NW, Washington,DC,20009,,New,Not specified,2.0,4960.0,Contact Management,38.919332,-77.029878,2930851,31890,326.41994306834573
Park East,1845 Summit Pl NW, Washington,DC,20009,,1 wk,Not specified,2.0,2798.0,Contact Management,38.926755,-77.042795,2930851,31890,874.4147058917268
Washington House,2120 16th St NW, Washington,DC,20009,,1 wk,Not specified,1.0,2500.0,Contact Management,38.91878,-77.03697199999998,2930851,31890,740.2763022104191
Twenty-Six Twenty,2620 16th St NW, Washington,DC,20009,,2 wks,Not specified,0.0,1509.0,Contact Management,38.923802,-77.036866,2930851,31890,646.9016990163083
2112 New Hampshire,2112 New Hampshire Ave NW, Washington,DC,20009,,2 wks,Not specified,1.0,2350.0,Contact Management,38.919009,-77.03537299999998,2930851,31890,623.2658814535789
The Citadel,1631 Kalorama Rd NW, Washington,DC,20009,,2 wks,Not specified,1.0,2400.0,Contact Management,38.921979,-77.03844000000002,2930851,31890,891.0831243847141
Park Square,2407 15th St NW, Washington,DC,20009,,2 wks,Not specified,1.0,1850.0,Contact Management,38.922134,-77.03489499999998,2930851,31890,749.7670758206972
The Policy,1921 Kalorama Rd NW, Washington,DC,20009,,2 wks,Not specified,2.0,3150.0,Contact Management,38.919487,-77.046071,2930851,31890,836.2924845104259
Dorchester West,2425 17th St NW, Washington,DC,20009,,2 wks,Not specified,2.0,2950.0,Contact Management,38.922564,-77.038659,2930851,31890,848.741823548733
The Croydon,1815 17th St NW, Washington,DC,20009,,2 wks,Not specified,1.0,2250.0,Contact Management,38.914673,-77.038165,2930851,31890,744.149577909715
The Wallasey,2426 19th St NW, Washington,DC,20009,,2 wks,Not specified,2.0,3750.0,Contact Management,38.921615,-77.046251,2930851,31890,669.2037731226657
Harvard Hall Apartments,1650 Harvard St NW, Washington,DC,20009,,2 wks,Not specified,2.0,1900.0,Contact Management,38.926907,-77.03992099999998,2930851,31890,648.5567988607199
The Envoy,2400 16th St NW, Washington,DC,20009,,New,Not specified,2.0,2100.0,Contact Management,38.921171,-77.036912,2930851,31890,864.2610564325776
Park Crescent Apartments,2901 18th St NW, Washington,DC,20009,,2 wks,Not specified,1.0,1649.0,Contact Management,38.926482,-77.041083,2930851,31890,758.8039796898181
Dorchester House,2480 16th St NW, Washington,DC,20009,,2 wks,Not specified,2.0,2000.0,Contact Management,38.922636,-77.03739200000003,2930851,31890,781.0181820669922
Park Terrace Apartments,1660 Lanier Pl NW, Washington,DC,20009,,2 wks,Not specified,1.0,1600.0,Contact Management,38.926083,-77.039222,2930851,31890,627.6078804733982
Rocksboro,1717 R St NW, Washington,DC,20009,,2 wks,Not specified,2.0,,Contact Management,38.912825,-77.039296,2930851,31890,526.0680162479043
Berkshire 15,2005 15th St NW, Washington,DC,20009,,33 min,Not specified,2.0,4657.0,Contact Management,38.917047,-77.034382,2930851,31890,475.0637773477832
Sixteen Hundred,1600 16th St NW, Washington,DC,20009,,6 hrs,Not specified,0.0,2141.0,Contact Management,38.911318,-77.03696,2930851,31890,610.7163480535963
Meridian Hill Apartments,2359-2401 Ontario Rd NW, Washington,DC,20009,,2 wks,Not specified,1.0,,Contact Management,38.92175,-77.039861,2930851,31890,983.9566218899779
Faircliff Plaza West,1424 Clifton St NW, Washington,DC,20009,,2 wks,Not specified,3.0,,Contact Management,38.922384,-77.033363,2930851,31890,701.0414428494072
2750 14th St NW Unit 204,2750 14th St NW Unit 204,Washington,DC,20009,,1 day,Not specified,,2650.0,Contact Management,38.925244,-77.032744,2930851,31890,381.18564116905486
2360 Champlain St NW Unit 23,2360 Champlain St NW Unit 23,Washington,DC,20009,,New,Not specified,,3750.0,Contact Management,38.921533000000004,-77.041483,2930851,31890,1039.9185276817584
2001 12th St NW Unit 308,2001 12th St NW Unit 308,Washington,DC,20009,,1 day,Not specified,2.0,3200.0,Contact Management,38.917666,-77.02780200000002,2930851,31890,163.67039280617567
1427 Chapin St NW,1427 Chapin St NW,Washington,DC,20009,,2 days,Not specified,1.0,2075.0,Contact Management,38.921772999999995,-77.03345,2930851,31890,705.401665262106
2001 16th St NW Unit 402,2001 16th St NW Unit 402,Washington,DC,20009,,2 days,Not specified,,2195.0,Contact Management,38.917823,-77.036144,2930851,31890,640.8364153769412
1733 19th St NW,1733 19th St NW,Washington,DC,20009,,3 days,Not specified,2.0,4800.0,Contact Management,38.913763,-77.043139,2930851,31890,475.95814821731597
1501 Swann St NW,1501 Swann St NW,Washington,DC,20009,,4 days,Not specified,2.0,4995.0,Contact Management,38.914952,-77.035154,2930851,31890,564.2963123267457
1618 19th St NW Unit 4,1618 19th St NW Unit 4,Washington,DC,20009,,New,Not specified,0.0,1599.0,Contact Management,38.911742,-77.043718,2930851,31890,249.554316850118
2633 16th St NW Unit 2f,2633 16th St NW Unit 2f,Washington,DC,20009,,New,Not specified,1.0,2550.0,Contact Management,38.924026,-77.036039,2930851,31890,588.735606118039
2814 Quarry Rd NW,2814 Quarry Rd NW,Washington,DC,20009,,New,Not specified,3.0,3300.0,Contact Management,38.926584999999996,-77.040687,2930851,31890,722.6846711178613
1444 W St NW Unit B1,1444 W St NW Unit B1,Washington,DC,20009,,1 wk,Not specified,,2800.0,Contact Management,38.919036,-77.033061,2930851,31890,455.46222348492046
1613 Harvard St NW Unit 112,1613 Harvard St NW Unit 112,Washington,DC,20009,,1 wk,Not specified,1.0,1800.0,Contact Management,38.927321,-77.037328,2930851,31890,421.5236044170752
1933 S St NW Unit C,1933 S St NW Unit C,Washington,DC,20009,,1 wk,Not specified,1.0,3200.0,Contact Management,38.914241,-77.04424300000002,2930851,31890,530.0343924160186
1915 New Hampshire Ave NW Unit B,1915 New Hampshire Ave NW Unit B,Washington,DC,20009,,1 wk,Not specified,2.0,3250.0,Contact Management,38.916041,-77.0371,2930851,31890,707.9055734700524
1844 Columbia Rd NW,1844 Columbia Rd NW,Washington,DC,20009,,1 wk,Not specified,0.0,1395.0,Contact Management,38.9215,-77.04318,2930851,31890,906.7730005456604
2001 12th St NW Unit 315,2001 12th St NW Unit 315,Washington,DC,20009,,1 wk,Not specified,,3200.0,Contact Management,38.917666,-77.02780200000002,2930851,31890,163.67039280617567
2656 15th St NW Unit 204,2656 15th St NW Unit 204,Washington,DC,20009,,1 wk,Not specified,,2100.0,Contact Management,38.924614,-77.035595,2930851,31890,512.9476186557439
1816 New Hampshire Ave NW,1816 New Hampshire Ave NW,Washington,DC,20009,,1 wk,Not specified,0.0,1995.0,Contact Management,38.914873,-77.038896,2930851,31890,723.9746631139182
1840 Wyoming Ave NW Unit Apt A,1840 Wyoming Ave NW Unit Apt A,Washington,DC,20009,,2 wks,Not specified,1.0,1850.0,Contact Management,38.918543,-77.043242,2930851,31890,1006.1785622668021
2323 Ontario Rd NW,2323 Ontario Rd NW,Washington,DC,20009,,2 wks,Not specified,1.0,2200.0,Contact Management,38.92061500000001,-77.03975600000003,2930851,31890,1042.3121789263605
1413 S St NW Unit 1,1413 S St NW Unit 1,Washington,DC,20009,,2 wks,Not specified,,2169.0,Contact Management,38.914242,-77.03246800000002,2930851,31890,394.59069027840775
1101 S St NW,1101 S St NW,Washington,DC,20009,,2 wks,Not specified,,8500.0,Contact Management,38.913940000000004,-77.027034,2930851,31890,327.82929195671034
1316 S St NW Unit A,1316 S St NW Unit A,Washington,DC,20009,,2 wks,Not specified,,3800.0,Contact Management,38.913940000000004,-77.029944,2930851,31890,296.49852413806406
Kalorama Park,1836-1840 Columbia Rd NW, Washington,DC,20009,,6 hrs,Not specified,2.0,3615.0,Contact Management,38.921592,-77.043207,2930851,31890,900.3110415911273
The Biltmore Apartments,1940 Biltmore St NW, Washington,DC,20009,,6 hrs,Not specified,2.0,3732.0,Contact Management,38.922036999999996,-77.046367,2930851,31890,635.3851559757346
1430 W,1430 W St NW, Washington,DC,20009,,6 hrs,Not specified,1.0,2034.0,Contact Management,38.919036,-77.032763,2930851,31890,435.56622387776093
Adams Towers,2325 15th St NW, Washington,DC,20009,,7 hrs,Not specified,1.0,2100.0,Contact Management,38.920857,-77.034675,2930851,31890,694.440651924258
2006 Columbia Rd NW Unit 50,2006 Columbia Rd NW Unit 50,Washington,DC,20009,,1 day,Not specified,,3800.0,Contact Management,38.917569,-77.045293,2930851,31890,908.9425886349574
1930 New Hampshire Ave NW Unit 13,1930 New Hampshire Ave NW Unit 13,Washington,DC,20009,,1 day,Not specified,,3000.0,Contact Management,38.916352,-77.037576,2930851,31890,747.4862822099793
1725 Lanier Pl NW Unit 37C,1725 Lanier Pl NW Unit 37C,Washington,DC,20009,,1 day,Not specified,,1750.0,Contact Management,38.925948999999996,-77.040622,2930851,31890,743.2609291951067
1801 Clydesdale Pl NW Unit 606,1801 Clydesdale Pl NW Unit 606,Washington,DC,20009,,1 day,Not specified,,1750.0,Contact Management,38.926235,-77.043571,2930851,31890,797.1472721620568
2440 16th St NW Unit 405,2440 16th St NW Unit 405,Washington,DC,20009,,1 day,Not specified,,1750.0,Contact Management,38.922064,-77.036873,2930851,31890,815.8226369634741
1401 Columbia Rd NW,1401 Columbia Rd NW,Washington,DC,20009,,New,Not specified,,1900.0,Contact Management,38.927913000000004,-77.03299100000002,2930851,31890,86.4404688920446
1833 Kalorama Rd NW Unit Apt B,1833 Kalorama Rd NW Unit Apt B,Washington,DC,20009,,1 day,Not specified,,2650.0,Contact Management,38.919869,-77.043001,2930851,31890,1010.8775671827003
1613 Harvard St NW,1613 Harvard St NW,Washington,DC,20009,,1 day,Not specified,,1800.0,Contact Management,38.927321,-77.037328,2930851,31890,421.5236044170752
1825 Kalorama Rd NW,1825 Kalorama Rd NW,Washington,DC,20009,,1 day,Not specified,,2695.0,Contact Management,38.91988,-77.042744,2930851,31890,1028.63156155122
2633 16th St NW,2633 16th St NW,Washington,DC,20009,,1 day,Not specified,,2850.0,Contact Management,38.924026,-77.036039,2930851,31890,588.735606118039
1200 S St NW,1200 S St NW,Washington,DC,20009,,1 day,Not specified,,3200.0,Contact Management,38.914243,-77.02808,2930851,31890,260.54254724768896
The Oxford Apartments,1808 Connecticut Ave NW, Washington,DC,20009,,New,Not specified,1.0,2000.0,Contact Management,38.914551,-77.046603,2930851,31890,618.2101689022874
1630 R Street Apartments,1630 R St NW, Washington,DC,20009,,New,Not specified,2.0,3199.0,Contact Management,38.912419,-77.037565,2930851,31890,616.3546035483193
The Corcoran at 14th,1617 14th St NW, Washington,DC,20009,,New,Not specified,1.0,3199.0,Contact Management,38.911738,-77.031684,2930851,31890,579.2518503171644
The Sedgewick,1722 19th St NW, Washington,DC,20009,,2 wks,Not specified,1.0,1900.0,Contact Management,38.913404,-77.043859,2930851,31890,434.7083121656907
The Radway,1630 Florida Ave NW, Washington,DC,20009,,2 wks,Not specified,1.0,1950.0,Contact Management,38.9186,-77.0376,2930851,31890,785.298068208778
Summit House,1714 Summit Pl NW, Washington,DC,20009,,2 wks,Not specified,0.0,995.0,Contact Management,38.926118,-77.040971,2930851,31890,763.7443405867817
The Libretto Apartments,2523 13th St NW, Washington,DC,20009,,2 wks,Not specified,1.0,1950.0,Contact Management,38.923177,-77.029324,2930851,31890,680.0443350487343
1111 Columbia Road Apartments,1111 Columbia Rd NW, Washington,DC,20009,,2 wks,Not specified,1.0,1550.0,Contact Management,38.927851000000004,-77.027928,2930851,31890,429.09987731959825
The Vintage,3146 16th St NW, Washington,DC,20010,,6 hrs,27,2.0,3150.0,Yes,38.929986,-77.037028,1146714,19130,395.84100737897813
The Woodner,3636 16th St NW, Washington,DC,20010,,1 wk,33,2.0,2199.0,Yes,38.936428,-77.037263,1146714,19130,945.7694892055835
Allegro,3460 14th St NW, Washington,DC,20010,,New,24,2.0,5609.0,Contact Management,38.932907,-77.033014,1146714,19130,471.36408195770747
Highland Park at Columbia Heights Metro,1400 Irving St NW, Washington,DC,20010,,6 hrs,98,2.0,3090.0,Contact Management,38.928523,-77.033621,1146714,19130,75.03260878295632
Park Triangle,1375 Kenyon St NW, Washington,DC,20010,,7 hrs,53,2.0,3705.0,Contact Management,38.92985,-77.031851,1146714,19130,153.44729843915377
Majestic Apartments,3200 16th St NW, Washington,DC,20010,,1 wk,Not specified,2.0,2699.0,Contact Management,38.931012,-77.03704300000003,1146714,19130,451.66176524532597
The Cromwell,1515 Ogden St NW, Washington,DC,20010,,2 wks,Not specified,1.0,1700.0,Contact Management,38.936059,-77.03489499999998,1146714,19130,841.6168829727425
Tivoli Gardens,1445 Ogden St NW, Washington,DC,20010,,2 wks,Not specified,2.0,1625.0,Contact Management,38.934991,-77.033984,1146714,19130,710.3802777543943
1700 Lamont St NW,1700 Lamont St NW,Washington,DC,20010,,4 hrs,Not specified,1.0,2100.0,Contact Management,38.931258,-77.03904399999998,1146714,19130,613.7925222175849
3415 Sherman Ave NW Unit 1,3415 Sherman Ave NW Unit 1,Washington,DC,20010,,1 day,Not specified,,4200.0,Contact Management,38.932342,-77.026524,1146714,19130,443.41515115070024
3345 18th St NW Unit 1,3345 18th St NW Unit 1,Washington,DC,20010,,1 day,Not specified,1.0,2778.0,Contact Management,38.933512,-77.040994,1146714,19130,891.6657921903425
1330 Park Rd NW Unit A,1330 Park Rd NW Unit A,Washington,DC,20010,,2 days,Not specified,,2500.0,Contact Management,38.930693,-77.030869,1146714,19130,278.71742987128226
3654 New Hampshire Ave NW Unit 37,3654 New Hampshire Ave NW Unit 37,Washington,DC,20010,,4 days,Not specified,1.0,1479.0,Contact Management,38.935559999999995,-77.025369,1146714,19130,79.86653120489322
1435 Newton St NW Unit 213,1435 Newton St NW Unit 213,Washington,DC,20010,,5 days,Not specified,1.0,1400.0,Contact Management,38.932663,-77.034159,1146714,19130,459.64273966686596
3515 Hertford Pl NW Unit 22,3515 Hertford Pl NW Unit 22,Washington,DC,20010,,1 wk,Not specified,1.0,1800.0,Contact Management,38.934919,-77.036028,1146714,19130,749.4603514032957
1909 Park Rd NW,1909 Park Rd NW,Washington,DC,20010,,1 wk,Not specified,,4000.0,Contact Management,38.933118,-77.044575,1146714,19130,1134.1116909599439
1909 Park Rd NW Unit 2,1909 Park Rd NW Unit 2,Washington,DC,20010,,1 wk,Not specified,2.0,1800.0,Contact Management,38.933118,-77.044575,1146714,19130,1134.1116909599439
1435 Newton St NW Unit 114,1435 Newton St NW Unit 114,Washington,DC,20010,,1 wk,Not specified,1.0,1800.0,Contact Management,38.932663,-77.034159,1146714,19130,459.64273966686596
1435 Newton St NW Unit 211,1435 Newton St NW Unit 211,Washington,DC,20010,,2 wks,Not specified,1.0,1793.0,Contact Management,38.932663,-77.034159,1146714,19130,459.64273966686596
1340 Otis Pl NW,1340 Otis Pl NW,Washington,DC,20010,,9 hrs,Not specified,3.0,2495.0,Contact Management,38.934395,-77.031153,1146714,19130,586.3508858551337
Park Road Courts,1346 Park Rd NW, Washington,DC,20010,,6 hrs,Not specified,2.0,2891.0,Contact Management,38.930393,-77.031347,1146714,19130,227.7697351282719
Fitzgerald,3625 16th St NW, Washington,DC,20010,,7 hrs,Not specified,1.0,1900.0,Contact Management,38.937197,-77.036006,1146714,19130,983.3749095920507
625 Princeton Pl NW,625 Princeton Pl NW,Washington,DC,20010,,1 day,Not specified,,1725.0,Contact Management,38.935907,-77.02029499999998,1146714,19130,383.8883132044837
639 Kenyon St NW,639 Kenyon St NW,Washington,DC,20010,,1 day,Not specified,,1750.0,Contact Management,38.930106,-77.022536,1146714,19130,690.4860581968157
3511 New Hampshire Ave NW,3511 New Hampshire Ave NW,Washington,DC,20010,,1 day,Not specified,,3700.0,Contact Management,38.93306,-77.026415,1146714,19130,365.83480502371765
1756 Park Rd NW,1756 Park Rd NW,Washington,DC,20010,,1 day,Not specified,,6395.0,Contact Management,38.932142999999996,-77.040673,1146714,19130,784.6591454729403
3300 16th St NW,3300 16th St NW,Washington,DC,20010,,1 day,Not specified,,1795.0,Contact Management,38.93225,-77.036808,1146714,19130,529.1381356156027
Park Pleasant Apartments,3339 Mount Pleasant St NW, Washington,DC,20010,,2 wks,Not specified,1.0,1625.0,Contact Management,38.93371,-77.039682,1146714,19130,819.0031367972713
Powhatan Apartments,1519 Monroe St NW, Washington,DC,20010,,2 wks,Not specified,1.0,2600.0,Contact Management,38.93243,-77.035504,1146714,19130,479.9361247829259
1319 Park Rd NW,1319 Park Rd NW,Washington,DC,20010,,2 wks,Not specified,2.0,2695.0,Contact Management,38.931298,-77.030441,1146714,19130,354.9969911930967
The Grove at Parkside,600 Kenilworth Ter NE, Washington,DC,20019,,1 wk,26,1.0,1041.0,No,38.898528999999996,-76.950609,939517,27320,223.80889443412363
Fort Chaplin Park Apartments,4212 E Capital St NE, Washington,DC,20019,,2 wks,Not specified,3.0,,Contact Management,38.890963,-76.941325,939517,27320,267.8458952342692
Park 7,4020 Minnesota Ave NE, Washington,DC,20019,,2 wks,Not specified,2.0,1374.0,Contact Management,38.895874,-76.949017,939517,27320,280.94945036081424
Meadow Green Courts,3539 A St SE, Washington,DC,20019,,2 wks,Not specified,3.0,1350.0,Contact Management,38.888631,-76.954314,939517,27320,1202.8101601976593
Benning Park Apartments,5113 Fitch St SE, Washington,DC,20019,,2 wks,Not specified,3.0,,Contact Management,38.880373999999996,-76.927973,939517,27320,1436.0899184678124
Elsinore Courtyard Apartments,5311-5323 E St SE, Washington,DC,20019,,2 wks,Not specified,3.0,,Contact Management,38.881728,-76.92603299999998,939517,27320,1412.8263937537597
Banneker Place,3738 D St SE, Washington,DC,20019,,2 wks,Not specified,2.0,959.0,Contact Management,38.885086,-76.948728,939517,27320,1084.8185813595555
301 63rd St NE,301 63rd St NE,Washington,DC,20019,,5 days,Not specified,,1040.0,Contact Management,38.892938,-76.910738,939517,27320,421.2779241565541
4219 Grant St NE,4219 Grant St NE,Washington,DC,20019,,9 hrs,Not specified,1.0,1400.0,Contact Management,38.898137,-76.941362,939517,27320,578.3107027225913
5323 D St SE,5323 D St SE,Washington,DC,20019,,1 day,Not specified,,2800.0,Contact Management,38.88306400000001,-76.925637,939517,27320,1295.7548488691327
4810 Quarles St NE Unit 403,4810 Quarles St NE Unit 403,Washington,DC,20019,,1 day,Not specified,,1500.0,Contact Management,38.908977,-76.931816,939517,27320,401.8588340662746
3413 Clay St NE,3413 Clay St NE,Washington,DC,20019,,1 day,Not specified,,1600.0,Contact Management,38.893352,-76.956908,939517,27320,943.119837621035
325 57th St NE,325 57th St NE,Washington,DC,20019,,1 day,Not specified,,1999.0,Contact Management,38.89340900000001,-76.918993,939517,27320,633.0291932656871
4219 Brooks St NE Unit 4,4219 Brooks St NE Unit 4,Washington,DC,20019,,New,Not specified,1.0,935.0,Contact Management,38.893572,-76.941349,939517,27320,433.1766302866208
737 Hilltop Ter SE,737 Hilltop Ter SE,Washington,DC,20019,,1 day,Not specified,,1800.0,Contact Management,38.879713,-76.941968,939517,27320,1239.675410280214
3940 C St SE,3940 C St SE,Washington,DC,20019,,1 day,Not specified,,2400.0,Contact Management,38.886202000000004,-76.94767399999998,939517,27320,941.6197186302091
4116 Ames St NE,4116 Ames St NE,Washington,DC,20019,,1 day,Not specified,,1400.0,Contact Management,38.891157,-76.943462,939517,27320,453.6793885308051
1011 51st St NE,1011 51st St NE,Washington,DC,20019,,1 day,Not specified,,885.0,Contact Management,38.904086,-76.926079,939517,27320,963.3407503101865
202 34th St NE,202 34th St NE,Washington,DC,20019,,1 day,Not specified,,1850.0,Contact Management,38.887351,-76.957278,939517,27320,1454.938692566947
4732 Benning Rd SE,4732 Benning Rd SE,Washington,DC,20019,,4 days,Not specified,,1205.0,Contact Management,38.882852,-76.93350600000002,939517,27320,944.7060032856111
Benning Woods,4040 E Capitol St NE, Washington,DC,20019,,1 wk,Not specified,1.0,995.0,Contact Management,38.890052000000004,-76.944917,939517,27320,575.5163026048779
5611 Foote St NE,5611 Foote St NE,Washington,DC,20019,,2 wks,Not specified,,2475.0,Contact Management,38.896955,-76.91941700000002,939517,27320,955.722162943322
Ames Street Apartments,3533 Ames St NE, Washington,DC,20019,,2 wks,Not specified,1.0,850.0,Contact Management,38.890456,-76.953581,939517,27320,993.7030195911174
Glendale Plaza Apartments,4651 Nannie Helen Burroughs Ave NE, Washington,DC,20019,,2 wks,Not specified,2.0,1379.0,Contact Management,38.898553,-76.934252,939517,27320,962.5026436030955
Wilson Apartments,3221 Ely Pl SE, Washington,DC,20019,,2 wks,Not specified,1.0,875.0,Contact Management,38.883456,-76.960633,939517,27320,1484.5517614730682
Hampton East Apartments,4736-4752 Benning Rd SE, Washington,DC,20019,,New,Not specified,2.0,956.0,Contact Management,38.883691999999996,-76.93185,939517,27320,939.0643872379878
The Duplexes at 45th and Eads,4510-4530 Eads St NE, Washington,DC,20019,,2 wks,Not specified,1.0,825.0,Contact Management,38.896068,-76.93633,939517,27320,643.2598004247455
Channel Square,1412 4th St SW, Washington,DC,20024,,2 wks,54,4.0,3544.0,Yes,38.87234,-77.017202,552652,7520,432.2720924946801
Waterside Towers,907 6th St SW, Washington,DC,20024,,New,11,4.0,2799.0,Contact Management,38.878814,-77.02108100000002,552652,7520,423.920054163954
Lex at Waterfront Station,1151-1551 4th St SW, Washington,DC,20024,,New,38,2.0,2961.0,Contact Management,38.910878000000004,-77.015974,552652,7520,584.0638489896231
The View at Waterfront,1100 6th St SW, Washington,DC,20024,,7 hrs,17,2.0,2360.0,Contact Management,38.877102,-77.019318,552652,7520,186.03638700774133
Capitol Park Tower,301 G St SW, Washington,DC,20024,,1 wk,27,2.0,2596.0,Contact Management,38.881674,-77.01680400000002,552652,7520,374.19425987987154
Capitol Park Plaza Apartments,201 Eye St SW, Washington,DC,20024,,New,Not specified,2.0,2650.0,Contact Management,38.876494,-77.022948,552652,7520,473.36226769403197
Capitol Park Tower,301 G St NW, Washington,DC,20024,,New,Not specified,3.0,2596.0,Contact Management,38.881674,-77.01680400000002,552652,7520,374.19425987987154
800 4th St SW Unit North,800 4th St SW Unit North,Washington,DC,20024,,5 days,Not specified,,1700.0,Contact Management,38.880278999999994,-77.017124,552652,7520,452.34596414596564
800 4th St SW Unit S501,800 4th St SW Unit S501,Washington,DC,20024,,1 wk,Not specified,,2800.0,Contact Management,38.880278999999994,-77.017124,552652,7520,452.34596414596564
1101 3rd St SW Unit 313,1101 3rd St SW Unit 313,Washington,DC,20024,,1 wk,Not specified,,2400.0,Contact Management,38.87710300000001,-77.01571899999998,552652,7520,182.06600519220484
57 G St SW,57 G St SW,Washington,DC,20024,,2 wks,Not specified,,2375.0,Contact Management,38.881446000000004,-77.011495,552652,7520,543.37156725273
Leo at Waterfront Station,1150 4th St SW, Washington,DC,20024,,6 hrs,Not specified,2.0,2996.0,Contact Management,38.877472999999995,-77.01632,552652,7520,172.21056159602014
1311 Delaware Ave SW,1311 Delaware Ave SW,Washington,DC,20024,,1 day,Not specified,,1550.0,Contact Management,38.873435,-77.01544799999998,552652,7520,356.71796112236683
520 N St SW,520 N St SW,Washington,DC,20024,,New,Not specified,,1800.0,Contact Management,38.874501,-77.01814499999998,552652,7520,199.45875728979655
715 Delaware Ave SW,715 Delaware Ave SW,Washington,DC,20024,,1 day,Not specified,,3100.0,Contact Management,38.880541,-77.01337,552652,7520,536.3571269754583
700 7th St SW,700 7th St SW,Washington,DC,20024,,1 day,Not specified,,2250.0,Contact Management,38.880284,-77.021532,552652,7520,500.7744445494798
1001 @ Waterfront Apartments,1001 3rd St SW, Washington,DC,20024,,2 wks,Not specified,2.0,2150.0,Contact Management,38.87784,-77.015681,552652,7520,238.65900476822634
The Lansburgh,425 8th St NW, Washington,DC,20004,,2 wks,46,2.0,5000.0,Yes,38.895839,-77.02271999999998,160722,1010,227.67111262838228
The Lexington at Market Square,444 8th St NW, Washington,DC,20004,,1 hr,Not specified,2.0,3592.0,Contact Management,38.895917,-77.02316,160722,1010,250.00845982846565
801 Pennsylvania Ave NW Unit 1128,801 Pennsylvania Ave NW Unit 1128,Washington,DC,20004,,1 day,Not specified,,3500.0,Contact Management,38.89442800000001,-77.02350600000003,160722,1010,151.02625758505982
Monroe Street Market,625 Monroe St NE, Washington,DC,20017,,New,69,2.0,6720.0,Contact Management,38.932057,-76.99704100000002,588455,9810,252.54144589917982
Edgewood Commons,601 Edgewood St NE, Washington,DC,20017,,2 wks,56,4.0,,Contact Management,38.9239,-76.997498,588455,9810,374.8886294178975
The Cloisters,100 Michigan Ave NE, Washington,DC,20017,,New,Not specified,3.0,2679.0,Contact Management,38.927436,-77.00619,588455,9810,1154.8624386444721
Brookland Ridge Apartments,400 Taylor St NE, Washington,DC,20017,,6 hrs,Not specified,2.0,1829.0,Contact Management,38.941072,-77.002,588455,9810,1084.1873157844973
3305 7th St NE Unit 3,3305 7th St NE Unit 3,Washington,DC,20017,,1 wk,Not specified,6.0,6500.0,Contact Management,38.930834000000004,-76.995929,588455,9810,292.5239992478762
3211 9th St NE,3211 9th St NE,Washington,DC,20017,,1 day,Not specified,,2700.0,Contact Management,38.929943,-76.99336,588455,9810,380.00330466076497
1210 Perry St NE,1210 Perry St NE,Washington,DC,20017,,1 day,Not specified,,1700.0,Contact Management,38.936381,-76.990392,588455,9810,501.4194436755943
517 Montana Ave NE,517 Montana Ave NE,Washington,DC,20017,,1 day,Not specified,,1550.0,Contact Management,38.925051,-76.999127,588455,9810,551.0070059589203
4023 9th St NE,4023 9th St NE,Washington,DC,20017,,1 day,Not specified,,1575.0,Contact Management,38.939895,-76.993336,588455,9810,748.0025107722138
3153 Hawthorne Dr NE,3153 Hawthorne Dr NE,Washington,DC,20017,,1 day,Not specified,,2100.0,Contact Management,38.928933,-77.007667,588455,9810,1231.7582038171145
The Vista,611 Edgewood St NE, Washington,DC,20017,,1 wk,Not specified,2.0,1474.0,Contact Management,38.923114,-76.997877,588455,9810,310.5534909319804
The Arbor,3230-3232 7th St NE, Washington,DC,20017,,2 wks,Not specified,2.0,1800.0,Contact Management,38.929994,-76.997005,588455,9810,418.4615431980701
Kew Gardens,2700 Q St NW, Washington,DC,20007,,6 hrs,48,2.0,2499.0,Contact Management,38.910278999999996,-77.055779,2934290,12640,1055.62213226085
Park Crest,2324 41st St NW, Washington,DC,20007,,6 hrs,28,2.0,2300.0,Contact Management,38.921457000000004,-77.081014,2934290,12640,2460.7111861965186
Skyline Towers Apartments,2730 Wisconsin Ave NW, Washington,DC,20007,,5 days,36,2.0,2500.0,Contact Management,38.925986,-77.073576,2934290,12640,1643.9251151655496
2255 Wisconsin,2255 Wisconsin Ave NW, Washington,DC,20007,,6 hrs,Not specified,2.0,3240.0,Contact Management,38.920516,-77.07124,2934290,12640,1683.8519110066288
eaves Tunlaw Gardens,3903 Davis Pl NW, Washington,DC,20007,,New,Not specified,2.0,2472.0,Contact Management,38.923827,-77.077831,2934290,12640,2082.8963572038924
The MacArthur Apartments,4520 Macarthur Blvd NW, Washington,DC,20007,,2 wks,Not specified,2.0,2095.0,Contact Management,38.9085,-77.085991,2934290,12640,1825.7835866842554
Highview Towers,2700 Wisconsin Ave NW, Washington,DC,20007,,2 wks,Not specified,1.0,,Contact Management,38.924766999999996,-77.073578,2934290,12640,1727.4603709991763
Q Street Apartments,2501 Q St NW, Washington,DC,20007,,1 wk,Not specified,1.0,2017.0,Contact Management,38.911008,-77.05303599999998,2934290,12640,831.8111869341075
Carillon House Apartments,2500 Wisconsin Ave NW, Washington,DC,20007,,2 wks,Not specified,1.0,1925.0,Contact Management,38.922923,-77.074045,2934290,12640,1865.339252673934
2217 39th Pl NW Unit B,2217 39th Pl NW Unit B,Washington,DC,20007,,New,Not specified,,1300.0,Contact Management,38.919752,-77.077722,2934290,12640,2246.2318507970745
3241 N St NW Unit 1,3241 N St NW Unit 1,Washington,DC,20007,,1 day,Not specified,,2750.0,Contact Management,38.906979,-77.064809,2934290,12640,1290.1394361187142
4564 MacArthur Blvd NW Unit 3,4564 MacArthur Blvd NW Unit 3,Washington,DC,20007,,4 days,Not specified,1.0,1875.0,Contact Management,38.909209999999995,-77.087958,2934290,12640,2000.285130791299
1365-1367 Wisconsin Ave NW,1365-1367 Wisconsin Ave NW,Washington,DC,20007,,4 days,Not specified,3.0,3300.0,Contact Management,38.908025,-77.063488,2934290,12640,1410.4813448431062
3312 Dent Pl NW,3312 Dent Pl NW,Washington,DC,20007,,New,Not specified,1.0,1785.0,Contact Management,38.911572,-77.0666,2934290,12640,1717.6445098136276
2111 Wisconsin Ave NW Unit #320,2111 Wisconsin Ave NW Unit #320,Washington,DC,20007,,5 days,Not specified,,1900.0,Contact Management,38.918304,-77.068549,2934290,12640,1564.1233492657968
2225 40th Pl NW Unit 4,2225 40th Pl NW Unit 4,Washington,DC,20007,,5 days,Not specified,1.0,1900.0,Contact Management,38.92005,-77.079504,2934290,12640,2387.5761002035883
1921 37th St NW,1921 37th St NW,Washington,DC,20007,,1 wk,Not specified,,2885.0,Contact Management,38.916069,-77.072587,2934290,12640,1990.3426662443433
1219 34th St NW,1219 34th St NW,Washington,DC,20007,,1 wk,Not specified,6.0,8394.0,Contact Management,38.905615999999995,-77.06769,2934290,12640,1054.807945180349
3723 W St NW,3723 W St NW,Washington,DC,20007,,2 wks,Not specified,,4360.0,Contact Management,38.919319,-77.07433499999998,2934290,12640,1979.592477060908
4840 MacArthur Blvd NW Unit 501,4840 MacArthur Blvd NW Unit 501,Washington,DC,20007,,2 wks,Not specified,,2195.0,Contact Management,38.917127,-77.096751,2934290,12640,3058.6704819531924
4555 MacArthur Blvd NW Unit 207,4555 MacArthur Blvd NW Unit 207,Washington,DC,20007,,2 wks,Not specified,,1750.0,Contact Management,38.909395,-77.087223,2934290,12640,1971.375210932824
1080 Wisconsin Ave NW Unit 506E,1080 Wisconsin Ave NW Unit 506E,Washington,DC,20007,,2 wks,Not specified,,4750.0,Contact Management,38.904672999999995,-77.062978,2934290,12640,1159.9889586418744
3735 Benton St NW,3735 Benton St NW,Washington,DC,20007,,2 wks,Not specified,,2950.0,Contact Management,38.920861,-77.07503,2934290,12640,1990.1594103557568
1080 Wisconsin Ave NW,1080 Wisconsin Ave NW,Washington,DC,20007,,1 day,Not specified,2.0,4250.0,Contact Management,38.904672999999995,-77.062978,2934290,12640,1159.9889586418744
3504 Whitehaven Pky NW,3504 Whitehaven Pky NW,Washington,DC,20007,,1 day,Not specified,,5500.0,Contact Management,38.916427,-77.069905,2934290,12640,1771.257568527698
3632 S St NW,3632 S St NW,Washington,DC,20007,,1 day,Not specified,,3900.0,Contact Management,38.914361,-77.071673,2934290,12640,1975.5750430517444
3421 O St NW,3421 O St NW,Washington,DC,20007,,1 day,Not specified,,5000.0,Contact Management,38.907882,-77.068601,2934290,12640,1279.2089244376464
4840 Macarthur Blvd NW Unit 301,4840 Macarthur Blvd NW Unit 301,Washington,DC,20007,,1 day,Not specified,,1875.0,Contact Management,38.917127,-77.096751,2934290,12640,3058.6704819531924
2509 Foxhall Rd NW,2509 Foxhall Rd NW,Washington,DC,20007,,1 day,Not specified,,42000.0,Contact Management,38.924152,-77.089384,2934290,12640,2762.803823679296
